ID,Playground Number,Name,Address,Type,Surface Type,Accessibility,User Category,Maintainer,Redevelopment Date,Latitude,Longitude,Location,Geometry Point,Neighbourhood ID,Neighbourhood Name
172,21,Overlanders,1150 Hermitage Road NW,Playground,Sand,Unknown,Unknown,Parks,2000/12/31,53.581145,-113.387412,"(53.58114537026016, -113.38741169462511)",POINT (-113.38741169462511 53.58114537026016),2590,OVERLANDERS
705,599,Falconer Park,Falconer Road NW,Playground,"Sand, Artificial Turf",Wheelchair Accessible,Junior/Senior (18 months to 12 years),Parks,2006/12/31,53.463294,-113.588249,"(53.46329424971526, -113.58824945692763)",POINT (-113.58824945692763 53.46329424971526),5190,FALCONER HEIGHTS
494,3688,McConachie Park,1221 McConachie Boulevard NW,Playground,Engineered Wood Fibre,Wheelchair Accessible,Junior/Senior (18 months to 12 years),Parks,2017/03/07,53.640109,-113.428416,"(53.64010884236456, -113.4284155199844)",POINT (-113.4284155199844 53.64010884236456),2522,MCCONACHIE
476,399,Sacred Heart School,9624 108 Avenue NW,Playground,Sand,Unknown,Senior (6 to 12 years),Parks,1993/12/31,53.554595,-113.486834,"(53.55459473120959, -113.48683428013813)",POINT (-113.48683428013813 53.55459473120959),1140,MCCAULEY
226,3463,Jackie Parker Park,50 Street - 44 Avenue NW,Playground,Engineered Wood Fibre,Wheelchair Accessible,Senior (6 to 12 years),Parks,2009/12/31,53.484119,-113.421636,"(53.48411932768937, -113.42163642935023)",POINT (-113.42163642935023 53.48411932768937),6500,MILL WOODS GOLF COURSE
752,3378,Garneau School East,10925 87 Avenue NW,Playground,Sand,Unknown,Junior/Senior (18 months to 12 years),Parks,1996/12/31,53.522152,-113.512656,"(53.522152185984766, -113.51265550406009)",POINT (-113.51265550406009 53.522152185984766),5200,GARNEAU
501,608,Rideau School,42 Avenue - 106 Street NW,Playground,Sand,Unknown,Junior/Senior (18 months to 12 years),Parks,2003/12/31,53.478006,-113.504893,"(53.47800617215946, -113.5048933370317)",POINT (-113.5048933370317 53.47800617215946),5360,RIDEAU PARK
579,133,Ecole Frere Antoine School,2850 Mill Woods Road West NW,Playground,Sand,Unknown,Junior (18 months to 5 years),Parks,2006/12/31,53.460023,-113.448815,"(53.46002279189431, -113.44881536172548)",POINT (-113.44881536172548 53.46002279189431),6750,TIPASKAN
310,64,Kildare Park,14224 74 Street NW,Playground,"Engineered Wood Fibre, Pour In Place Rubber",Wheelchair Accessible,Senior (6 to 12 years),Parks,1996/12/31,53.605506,-113.456206,"(53.60550556314128, -113.45620612555021)",POINT (-113.45620612555021 53.60550556314128),2400,KILDARE
573,1676,Blessed Kateri (Creek's Crossing),3807 41 Avenue NW,Playground,Sand,Unknown,Junior/Senior (18 months to 12 years),Parks,1997/12/31,53.475247,-113.400292,"(53.475246997868126, -113.40029176274226)",POINT (-113.40029176274226 53.475246997868126),6370,KINISKI GARDENS
496,612,Mount Pleasant Park / Pleasantview,58 Avenue - 105 Street NW,Playground,Sand,Unknown,Junior/Senior (18 months to 12 years),Parks,2001/02/06,53.495359,-113.500242,"(53.49535859659926, -113.50024214655716)",POINT (-113.50024214655716 53.49535859659926),5320,PLEASANTVIEW
204,65,Kirkness School/Park,610 Kirkness Road NW,Playground,Sand,Unknown,Junior/Senior (18 months to 12 years),Parks,1994/12/31,53.612013,-113.385125,"(53.612013109865586, -113.38512482335472)",POINT (-113.38512482335472 53.612013109865586),2430,KIRKNESS
758,1649,Beverly Heights Park,3511 117 Avenue NW,Playground,Sand,Unknown,Junior/Senior (18 months to 12 years),Parks,1973/12/31,53.569190,-113.395500,"(53.56919040907998, -113.39550021637103)",POINT (-113.39550021637103 53.56919040907998),2100,BEVERLY HEIGHTS
725,110,Carlisle Playground,14240 117 Street NW,Playground,Sand,Unknown,Junior/Senior (18 months to 12 years),Parks,1992/12/31,53.605026,-113.524065,"(53.60502599958192, -113.52406505362013)",POINT (-113.52406505362013 53.60502599958192),3090,CARLISLE
753,3675,Bessie Nichols School Playground,189 Hemingway Road NW,Playground,Pour In Place Rubber,Wheelchair Accessible,Junior/Senior (18 months to 12 years),Parks,2016/12/31,53.486555,-113.671910,"(53.48655492945639, -113.67190966800828)",POINT (-113.67190966800828 53.48655492945639),4461,THE HAMPTONS
364,85,High Park School Playground,11031 154 Street NW,Playground,Sand,Unknown,Junior/Senior (18 months to 12 years),Parks,1993/12/31,53.556263,-113.586599,"(53.556262533862665, -113.58659894542505)",POINT (-113.58659894542505 53.556262533862665),4200,HIGH PARK
627,168,Brander Gardens Park,14815 56 AVENUE NW,Playground,"Pour In Place Rubber, Sand",Wheelchair Accessible,Junior/Senior (18 months to 12 years),Parks,2010/12/31,53.493614,-113.575534,"(53.493614241478724, -113.5755341909268)",POINT (-113.5755341909268 53.493614241478724),5080,BRANDER GARDENS
228,3463,Jackie Parker Park,50 Street - 44 Avenue NW,Playground,Sand,Unknown,Junior (18 months to 5 years),Parks,2009/12/31,53.484446,-113.424247,"(53.4844463764894, -113.424247242642)",POINT (-113.424247242642 53.4844463764894),6500,MILL WOODS GOLF COURSE
3728,3780,Father Michael Mireau School,3010 Spence Wynd SW,Playground,"Engineered Wood Fibre, Pour In Place Rubber",Wheelchair Accessible,Senior (6 to 12 years),Parks,2021/10/22,53.420190,-113.465061,"(53.42018962962565, -113.46506134470025)",POINT (-113.46506134470025 53.42018962962565),6213,SUMMERSIDE
340,1643,Lorne Street Park (Tot Lot),11714 92 Street NW,Playground,Pour In Place Rubber,Wheelchair Accessible,Junior/Senior (18 months to 12 years),Parks,1999/12/31,53.562944,-113.482197,"(53.562944040232736, -113.48219700074931)",POINT (-113.48219700074931 53.562944040232736),1010,ALBERTA AVENUE
623,281,Glenwood Community Playground,16430 97 Avenue NW,Playground,Sand,Unknown,Junior/Senior (18 months to 12 years),Parks,2000/12/31,53.535686,-113.605084,"(53.53568603823973, -113.60508417705084)",POINT (-113.60508417705084 53.53568603823973),4180,GLENWOOD
138,982,King Edward Academy,8525 101 Street NW,Playground,Sand,Unknown,Senior (6 to 12 years),Parks,2012/08/21,53.521280,-113.489713,"(53.521280180438126, -113.48971293974772)",POINT (-113.48971293974772 53.521280180438126),5480,STRATHCONA
854,3604,Elizabeth Finch School Playground,15923 139 St NW,Playground,"Engineered Wood Fibre, Pour In Place Rubber, Sand",Wheelchair Accessible,Junior/Senior (18 months to 12 years),Parks,2012/12/31,53.620009,-113.559637,"(53.6200088801922, -113.55963741023751)",POINT (-113.55963741023751 53.6200088801922),3470,CARLTON
820,3703,Nellie Carlson School Playground,4132 Mactaggart Drive NW,Playground,Engineered Wood Fibre,Unknown,Junior/Senior (18 months to 12 years),Parks,2019/07/05,53.443013,-113.557973,"(53.44301260565405, -113.55797344633038)",POINT (-113.55797344633038 53.44301260565405),5477,MACTAGGART
575,292,Crestwood Community Playground,14325 96 Avenue NW,Playground,Pour In Place Rubber,Wheelchair Accessible,Junior/Senior (18 months to 12 years),Parks,2016/12/31,53.533316,-113.569752,"(53.53331595510014, -113.56975233052054)",POINT (-113.56975233052054 53.53331595510014),3140,CRESTWOOD
389,3633,Hollick Kenyon Park,Hollick Kenyon Rd & 162 Ave,Playground,Pour In Place Rubber,Wheelchair Accessible,Junior/Senior (18 months to 12 years),Parks,2013/12/31,53.621367,-113.420133,"(53.621367041753686, -113.42013282089158)",POINT (-113.42013282089158 53.621367041753686),2340,HOLLICK-KENYON
663,118,Caernarvon Park Playground,14830 118 Street NW,Playground,Sand,Unknown,Junior/Senior (18 months to 12 years),Parks,1990/12/31,53.610940,-113.528188,"(53.61093985213657, -113.52818768337673)",POINT (-113.52818768337673 53.61093985213657),3060,CAERNARVON
343,285,North Glenora Community League Playground,13637 109A Avenue NW,Playground,Sand,Unknown,Junior/Senior (18 months to 12 years),Parks,1998/12/31,53.554981,-113.557348,"(53.55498069643909, -113.55734772609878)",POINT (-113.55734772609878 53.55498069643909),3310,NORTH GLENORA
680,117,Callingwood School Playground,17335 76 Avenue NW,Playground,"Pour In Place Rubber, Sand",Wheelchair Accessible,Junior/Senior (18 months to 12 years),Parks,2012/12/31,53.508217,-113.622135,"(53.508216648520566, -113.62213503222642)",POINT (-113.62213503222642 53.508216648520566),4070,CALLINGWOOD NORTH
849,382,York Park (Steele Heights Community),5825 140 Avenue NW,Playground,Sand,Unknown,Junior/Senior (18 months to 12 years),Parks,1995/12/31,53.601830,-113.433353,"(53.601830147941186, -113.43335336239919)",POINT (-113.43335336239919 53.601830147941186),2720,YORK
898,70,Westridge Wolf Willow Playground,505 Wolf Willow Drive NW,Playground,Engineered Wood Fibre,Wheelchair Accessible,Junior/Senior (18 months to 12 years),Parks,2010/12/31,53.506347,-113.605518,"(53.506346745358854, -113.60551813535633)",POINT (-113.60551813535633 53.506346745358854),4610,WESTRIDGE
828,164,Windsor Park School,8720 118 Street NW,Playground,"Engineered Wood Fibre, Pour In Place Rubber, Sand",Wheelchair Accessible,Junior/Senior (18 months to 12 years),Parks,2011/12/31,53.523624,-113.535726,"(53.523623574215875, -113.5357261606755)",POINT (-113.5357261606755 53.523623574215875),5580,WINDSOR PARK
718,398,Floden Park,4209 Ada Boulevard NW,Playground,"Pour In Place Rubber, Sand",Wheelchair Accessible,Senior (6 to 12 years),Parks,2005/12/31,53.563678,-113.407908,"(53.56367833727398, -113.40790809588981)",POINT (-113.40790809588981 53.56367833727398),2100,BEVERLY HEIGHTS
417,1661,St. Gabriel Catholic School,5540 106 Avenue NW,Playground,Sand,Unknown,Senior (6 to 12 years),Parks,1997/12/31,53.550852,-113.423607,"(53.55085229086768, -113.4236073478713)",POINT (-113.4236073478713 53.55085229086768),6061,CAPILANO
229,3463,Jackie Parker Park,50 Street - 44 Avenue NW,Playground,Engineered Wood Fibre,Wheelchair Accessible,Senior (6 to 12 years),Parks,2009/12/31,53.484231,-113.422231,"(53.48423088877932, -113.42223054871309)",POINT (-113.42223054871309 53.48423088877932),6500,MILL WOODS GOLF COURSE
241,1644,Ralph Hopp Park,6802 130 Avenue NW,Playground,Sand,Unknown,Junior/Senior (18 months to 12 years),Parks,1975/12/31,53.589332,-113.445666,"(53.589332316982265, -113.44566575545537)",POINT (-113.44566575545537 53.589332316982265),2020,BALWIN
672,3580,Elsinore Chambery Park Playground,"176 Avenue, Between 104-107 Street",Playground,Pour In Place Rubber,Wheelchair Accessible,Junior/Senior (18 months to 12 years),Parks,2009/12/31,53.640909,-113.505958,"(53.6409092910303, -113.5059583414418)",POINT (-113.5059583414418 53.6409092910303),3190,ELSINORE
767,309,Kinsmen Park Senior,9100 Walterdale Hill NW,Playground,Pour In Place Rubber,Wheelchair Accessible,Junior/Senior (18 months to 12 years),Parks,2013/12/31,53.526708,-113.509171,"(53.52670759825237, -113.50917129309697)",POINT (-113.50917129309697 53.52670759825237),5390,RIVER VALLEY WALTERDALE
318,1766,Central Westmount Playground,10625 126 Street NW,Playground,Sand,Unknown,Junior/Senior (18 months to 12 years),Parks,1993/12/31,53.550244,-113.538990,"(53.55024418889688, -113.53898971893733)",POINT (-113.53898971893733 53.55024418889688),3440,WESTMOUNT
821,325,Twin Brooks Playground (George Nicholson School),12 Avenue - 113 Street NW,Playground,Engineered Wood Fibre,Wheelchair Accessible,Junior/Senior (18 months to 12 years),Parks,2023/10/17,53.443118,-113.526782,"(53.443117560823694, -113.52678160855368)",POINT (-113.52678160855368 53.443117560823694),5511,TWIN BROOKS
420,27,St. Patrick School,10250 95A Street NW,Playground,Sand,Unknown,Junior/Senior (18 months to 12 years),Parks,2000/12/31,53.574341,-113.489408,"(53.57434071386575, -113.48940778600266)",POINT (-113.48940778600266 53.57434071386575),1010,ALBERTA AVENUE
761,241,Aspen Gardens Community League,12015 39A Avenue NW,Playground,Sand,Unknown,Junior/Senior (18 months to 12 years),Parks,2003/12/31,53.474992,-113.542606,"(53.474991913720956, -113.54260623447898)",POINT (-113.54260623447898 53.474991913720956),5020,ASPEN GARDENS
450,1940,Rosslyn Neighbourhood Park Playground,13535 104 Street NW,Playground,Sand,Unknown,Junior/Senior (18 months to 12 years),Parks,1970/12/31,53.598077,-113.498546,"(53.59807747133354, -113.49854623448132)",POINT (-113.49854623448132 53.59807747133354),3390,ROSSLYN
863,3730,Cavanagh - Stage 9 MR,2077 Cavanagh Drive SW,Playground,Engineered Wood Fibre,Unknown,Junior/Senior (18 months to 12 years),Parks,2020/04/22,53.406811,-113.510915,"(53.40681062508288, -113.51091484328106)",POINT (-113.51091484328106 53.40681062508288),5467,CAVANAGH
141,3660,Windermere Ridge Park,107 Windermere Dr,Playground,Engineered Wood Fibre,Wheelchair Accessible,Junior/Senior (18 months to 12 years),Parks,2016/03/22,53.440594,-113.629773,"(53.44059363950282, -113.62977276028528)",POINT (-113.62977276028528 53.44059363950282),5570,WINDERMERE
661,264,Brittania Youngstown Community League,15927 105 Avenue NW,Playground,Sand,Unknown,Junior/Senior (18 months to 12 years),Parks,1996/12/31,53.548303,-113.598051,"(53.548303167785335, -113.59805125854594)",POINT (-113.59805125854594 53.548303167785335),4060,BRITANNIA YOUNGSTOWN
669,75,Afton Playground,16604 91 Avenue NW,Playground,"Pour In Place Rubber, Sand",Wheelchair Accessible,Junior/Senior (18 months to 12 years),Parks,2005/12/31,53.526923,-113.608711,"(53.5269227340645, -113.60871065809407)",POINT (-113.60871065809407 53.5269227340645),4590,WEST MEADOWLARK PARK
701,613,Allendale Park,10535 66 Avenue NW,Playground,Sand,Unknown,Junior/Senior (18 months to 12 years),Parks,1996/12/31,53.500902,-113.502348,"(53.50090247388002, -113.5023480607766)",POINT (-113.5023480607766 53.50090247388002),5010,ALLENDALE
546,1665,Eastwood Community League,8524 118 Avenue NW,Playground,Pour In Place Rubber,Wheelchair Accessible,Senior (6 to 12 years),Parks,2005/12/31,53.570951,-113.472140,"(53.57095100900314, -113.47214049513443)",POINT (-113.47214049513443 53.57095100900314),1100,EASTWOOD
542,588,Charles Simmonds Park,7830 115 Street NW,Playground,Sand,Unknown,Junior/Senior (18 months to 12 years),Parks,1977/12/31,53.515426,-113.530823,"(53.515425905368005, -113.53082297527726)",POINT (-113.53082297527726 53.515425905368005),5290,MCKERNAN
367,309,Kinsmen Park Senior,9100 Walterdale Hill NW,Playground,Sand,Unknown,Junior/Senior (18 months to 12 years),Parks,2013/12/31,53.526756,-113.508843,"(53.5267563989344, -113.5088426693357)",POINT (-113.5088426693357 53.5267563989344),5390,RIVER VALLEY WALTERDALE
662,166,Brookside School,5320 143 Street NW,Playground,"Engineered Wood Fibre, Pour In Place Rubber",Unknown,Junior/Senior (18 months to 12 years),Parks,1999/12/31,53.491214,-113.568705,"(53.49121353985332, -113.56870540414637)",POINT (-113.56870540414637 53.49121353985332),5090,BROOKSIDE
168,105,Mayfield Community League Playground,10941 161 Street NW,Playground,Pour In Place Rubber,Wheelchair Accessible,Junior/Senior (18 months to 12 years),Parks,2014/12/31,53.555228,-113.595277,"(53.55522827611746, -113.59527668999115)",POINT (-113.59527668999115 53.55522827611746),4290,MAYFIELD
314,1944,Sir Wilfrid Laurier Natural Playground,13221 Buena Vista Road,Playground,Engineered Wood Fibre,Unknown,Junior/Senior (18 months to 12 years),Parks,2020/01/01,53.509410,-113.553245,"(53.509410402438874, -113.55324495358616)",POINT (-113.55324495358616 53.509410402438874),3382,RIVER VALLEY LAURIER
407,3664,South Terwillegar Park,7170 South Terwillegar Dr,Playground,"Engineered Wood Fibre, Pour In Place Rubber",Unknown,Junior/Senior (18 months to 12 years),Parks,2011/12/31,53.439784,-113.580229,"(53.439784459798716, -113.58022945256823)",POINT (-113.58022945256823 53.439784459798716),5642,SOUTH TERWILLEGAR
614,390,Borden Park,7405 - 112 Avenue NW,Playground,Engineered Wood Fibre,Wheelchair Accessible,Unknown,Parks,2012/12/31,53.561790,-113.454119,"(53.56179011019739, -113.45411852892911)",POINT (-113.45411852892911 53.56179011019739),1240,VIRGINIA PARK
315,147,Minchau School,3615 Mill Woods Road East NW,Playground,"Pour In Place Rubber, Sand",Wheelchair Accessible,Junior/Senior (18 months to 12 years),Parks,2002/12/31,53.468872,-113.408998,"(53.468872185177545, -113.40899845210646)",POINT (-113.40899845210646 53.468872185177545),6530,MINCHAU
490,388,Sheriff Robertson Park,7707 112 Avenue NW,Playground,Sand,Unknown,Senior (6 to 12 years),Parks,2000/12/31,53.559134,-113.465985,"(53.559134414570025, -113.46598545975084)",POINT (-113.46598545975084 53.559134414570025),1190,RIVER VALLEY KINNAIRD
366,3638,Kinsmen Park Junior,9100 Walterdale Hill NW,Playground,"Engineered Wood Fibre, Pour In Place Rubber",Wheelchair Accessible,Junior/Senior (18 months to 12 years),Parks,2013/12/31,53.526584,-113.508905,"(53.526584142224046, -113.50890462274316)",POINT (-113.50890462274316 53.526584142224046),5390,RIVER VALLEY WALTERDALE
344,33,Northmount,9204 104 Avenue NW,Playground,Sand,Unknown,Junior/Senior (18 months to 12 years),Parks,1999/12/31,53.603493,-113.481812,"(53.60349324483258, -113.48181177683688)",POINT (-113.48181177683688 53.60349324483258),2580,NORTHMOUNT
555,3283,Blackmud Park,Blackmud Creek - Baker Close,Playground,Sand,Unknown,Junior/Senior (18 months to 12 years),Parks,2010/12/31,53.420042,-113.513059,"(53.420041682326485, -113.51305879973117)",POINT (-113.51305879973117 53.420041682326485),5453,BLACKMUD CREEK
912,2001,Terwillegar Towne Park (Tomlinson Park),1765 - TOMLINSON COMMON NW,Playground,Sand,Unknown,Junior/Senior (18 months to 12 years),Parks,2002/12/31,53.449686,-113.584781,"(53.449686444105794, -113.58478110971396)",POINT (-113.58478110971396 53.449686444105794),5640,TERWILLEGAR TOWNE
174,52,Homesteader Community League,575 Hermitage Road NW,Playground,Sand,Unknown,Junior/Senior (18 months to 12 years),Parks,1993/12/31,53.586520,-113.408177,"(53.586519593730756, -113.40817654100661)",POINT (-113.40817654100661 53.586519593730756),2350,HOMESTEADER
893,3679,Svend Hansen School Playground,24 Street NW & 16 Avenue NW,Playground,Engineered Wood Fibre,Wheelchair Accessible,Senior (6 to 12 years),Parks,2018/12/31,53.445877,-113.372597,"(53.445877488716405, -113.37259744256028)",POINT (-113.37259744256028 53.445877488716405),6444,LAUREL
521,1902,Beverly Heights Park Tot Lot,3807 108 Avenue NW,Playground,Sand,Unknown,Junior/Senior (18 months to 12 years),Parks,1995/12/31,53.560846,-113.401123,"(53.56084587516297, -113.40112274274261)",POINT (-113.40112274274261 53.56084587516297),2100,BEVERLY HEIGHTS
827,164,Windsor Park School,8720 118 Street NW,Playground,Pour In Place Rubber,Wheelchair Accessible,Junior/Senior (18 months to 12 years),Parks,2011/12/31,53.523578,-113.535968,"(53.52357813624762, -113.53596822047828)",POINT (-113.53596822047828 53.52357813624762),5580,WINDSOR PARK
262,155,Larkspur Park,43 Avenue - 30 Street NW,Playground,"Pour In Place Rubber, Sand",Wheelchair Accessible,Junior/Senior (18 months to 12 years),Parks,2012/12/31,53.480381,-113.386763,"(53.48038136509767, -113.38676281186387)",POINT (-113.38676281186387 53.48038136509767),6390,LARKSPUR
470,3360,Rutherford (Johnny Bright School),Rutherford Road,Playground,"Pour In Place Rubber, Sand",Wheelchair Accessible,Junior/Senior (18 months to 12 years),Parks,2011/12/31,53.420103,-113.534933,"(53.420103499693724, -113.53493313318822)",POINT (-113.53493313318822 53.420103499693724),5454,RUTHERFORD
206,1678,Mayliewan Park,7503 161A Avenue NW,Playground,Engineered Wood Fibre,Wheelchair Accessible,Senior (6 to 12 years),Parks,2005/12/31,53.622079,-113.459050,"(53.62207913832347, -113.45905011456645)",POINT (-113.45905011456645 53.62207913832347),2511,MAYLIEWAN
759,97,Gariepy Park Playground,17404 - 57 AVENUE NW T6M1K4,Playground,Sand,Unknown,Junior/Senior (18 months to 12 years),Parks,2003/12/31,53.493356,-113.623273,"(53.493355569728664, -113.62327287941682)",POINT (-113.62327287941682 53.493355569728664),4160,GARIEPY
8529,119,Argyll Park,6750 88 Street NW,Playground,Engineered Wood Fibre,Unknown,Junior (18 months to 5 years),Parks,2021/09/07,53.505209,-113.463678,"(53.505209409973986, -113.46367837703889)",POINT (-113.46367837703889 53.505209409973986),6492,MILL CREEK RAVINE SOUTH
424,26,Riverdale Park,9231 100 Avenue NW,Playground,"Rubber Tiles, Sand",Wheelchair Accessible,Junior/Senior (18 months to 12 years),Parks,2002/12/31,53.541487,-113.473299,"(53.54148739814359, -113.4732986225564)",POINT (-113.4732986225564 53.54148739814359),1210,RIVERDALE
926,1651,Touchdown Park Playground,12845 - 125 STREET NW,Playground,Sand,Unknown,Junior/Senior (18 months to 12 years),Parks,1978/12/31,53.587306,-113.537707,"(53.58730587858333, -113.53770726898708)",POINT (-113.53770726898708 53.58730587858333),3070,CALDER
598,123,Bonnie Doon Park,9263 94 Street NW,Playground,"Engineered Wood Fibre, Pour In Place Rubber",Wheelchair Accessible,Junior (18 months to 5 years),Parks,2011/12/31,53.527510,-113.470297,"(53.527509706572516, -113.47029669655021)",POINT (-113.47029669655021 53.527509706572516),6040,BONNIE DOON
792,3603,Glastonbury Park Playground,1101 Grantham Drive NW,Playground,Engineered Wood Fibre,Wheelchair Accessible,Junior/Senior (18 months to 12 years),Parks,2011/12/31,53.505612,-113.672432,"(53.505611717534094, -113.6724322898138)",POINT (-113.6724322898138 53.505611717534094),4720,GLASTONBURY
632,3200,Doug Kelly Park Playground,208 Street NW & 57 Avenue NW,Playground,Engineered Wood Fibre,Wheelchair Accessible,Junior/Senior (18 months to 12 years),Parks,2007/12/31,53.492771,-113.679180,"(53.49277107773048, -113.67917981902798)",POINT (-113.67917981902798 53.49277107773048),4461,THE HAMPTONS
908,587,William Hawrelak Park Playground,9330 Groat Road,Playground,Sand,Unknown,Junior/Senior (18 months to 12 years),Parks,1973/12/31,53.527033,-113.544034,"(53.527032920652644, -113.54403380397339)",POINT (-113.54403380397339 53.527032920652644),5370,RIVER VALLEY MAYFAIR
404,982,King Edward Academy,8525 101 Street NW,Playground,Sand,Unknown,Junior/Senior (18 months to 12 years),Parks,2012/08/21,53.521564,-113.489627,"(53.52156419559317, -113.48962744983095)",POINT (-113.48962744983095 53.52156419559317),5480,STRATHCONA
355,83,Lynnwood Community Playground,15525 84 Avenue NW,Playground,Sand,Unknown,Junior/Senior (18 months to 12 years),Parks,2000/12/31,53.516295,-113.589466,"(53.51629544391058, -113.58946550157832)",POINT (-113.58946550157832 53.51629544391058),4280,LYNNWOOD
589,2060,Cumberland Park Playground,129 Street - 148 Avenue NW,Playground,Sand,Unknown,Junior/Senior (18 months to 12 years),Parks,2003/12/31,53.610935,-113.544992,"(53.610935318618516, -113.5449917338128)",POINT (-113.5449917338128 53.610935318618516),3150,CUMBERLAND
161,310,Emily Murphy Park,11904 Emily Murphy Park Road,Playground,Sand,Unknown,Junior/Senior (18 months to 12 years),Parks,2001/02/06,53.534057,-113.538694,"(53.534057118759435, -113.5386939039125)",POINT (-113.5386939039125 53.534057118759435),5370,RIVER VALLEY MAYFAIR
427,3372,St. Benedict School Playground,180 Street - 93 Avenue NW,Playground,Sand,Unknown,Junior/Senior (18 months to 12 years),Parks,2000/12/31,53.525926,-113.634754,"(53.52592642834497, -113.63475411644433)",POINT (-113.63475411644433 53.52592642834497),4040,BELMEAD
568,290,Glenora Community Playground,10426 136 Street NW,Playground,"Pour In Place Rubber, Sand",Wheelchair Accessible,Junior/Senior (18 months to 12 years),Parks,2010/12/31,53.546595,-113.556747,"(53.54659484936632, -113.55674719273861)",POINT (-113.55674719273861 53.54659484936632),3200,GLENORA
383,3425,Maple Ridge Park,1615 66 Avenue NW,Playground,Engineered Wood Fibre,Wheelchair Accessible,Junior/Senior (18 months to 12 years),Parks,2005/12/31,53.501863,-113.368079,"(53.5018629390993, -113.36807873769266)",POINT (-113.36807873769266 53.5018629390993),6410,MAPLE RIDGE
876,3606,Suder Greens Park Playground,290 - SUDER GREENS DRIVE NW,Playground,Engineered Wood Fibre,Wheelchair Accessible,Junior/Senior (18 months to 12 years),Parks,2011/12/31,53.520971,-113.684762,"(53.52097120757329, -113.68476183698907)",POINT (-113.68476183698907 53.52097120757329),4730,SUDER GREENS
887,295,West Meadowlark Community Playground,9311 165 Street NW,Playground,Pour In Place Rubber,Wheelchair Accessible,Junior/Senior (18 months to 12 years),Parks,2008/12/31,53.529425,-113.606483,"(53.529425084775525, -113.60648346578756)",POINT (-113.60648346578756 53.529425084775525),4590,WEST MEADOWLARK PARK
549,1945,The Grange Playground,1007 - GRAHAM COURT NW,Playground,Sand,Unknown,Junior/Senior (18 months to 12 years),Parks,1999/12/31,53.506606,-113.667545,"(53.50660589673908, -113.66754481645822)",POINT (-113.66754481645822 53.50660589673908),4720,GLASTONBURY
6128,3787,Kinglet Gardens Playground,118 Avenue NW and 215 Street NW,Playground,"Engineered Wood Fibre, Pour In Place Rubber",Wheelchair Accessible,Junior/Senior (18 months to 12 years),Parks,2021/11/23,53.573231,-113.693189,"(53.57323078950904, -113.69318857758043)",POINT (-113.69318857758043 53.57323078950904),4477,KINGLET GARDENS
231,3341,Knob Hill Park,95 Avenue - 97 Street NW,Playground,Sand,Unknown,Junior/Senior (18 months to 12 years),Parks,1965/12/31,53.531785,-113.479617,"(53.5317846738419, -113.47961702673149)",POINT (-113.47961702673149 53.5317846738419),6491,MILL CREEK RAVINE NORTH
883,3655,Summerside 58,21A Avenue SW and 69 Street SW,Playground,Engineered Wood Fibre,Wheelchair Accessible,Junior (18 months to 5 years),Parks,2013/12/31,53.412952,-113.446461,"(53.41295237697905, -113.44646068274584)",POINT (-113.44646068274584 53.41295237697905),6213,SUMMERSIDE
637,287,Grad's Park Playground,10914 120 Street NW,Playground,Sand,Unknown,Junior/Senior (18 months to 12 years),Parks,1993/12/31,53.555792,-113.531347,"(53.55579180934746, -113.53134741042355)",POINT (-113.53134741042355 53.55579180934746),3440,WESTMOUNT
304,3401,Miller Park,50 St-Matheson Way,Playground,Engineered Wood Fibre,Wheelchair Accessible,Junior (18 months to 5 years),Parks,2007/12/31,53.612752,-113.415973,"(53.612752254943615, -113.4159728372577)",POINT (-113.4159728372577 53.612752254943615),2541,MILLER
167,1925,Maude Belle Park,7320 77 Avenue NW,Playground,Sand,Unknown,Junior (18 months to 5 years),Parks,2007/12/31,53.513809,-113.441282,"(53.51380927073944, -113.44128233212277)",POINT (-113.44128233212277 53.51380927073944),6360,KING EDWARD PARK
373,3635,Orchards,90 St & 23 Ave SW,Playground,Engineered Wood Fibre,Wheelchair Accessible,Junior (18 months to 5 years),Parks,2012/12/31,53.411713,-113.472094,"(53.41171320482043, -113.47209436823539)",POINT (-113.47209436823539 53.41171320482043),6213,SUMMERSIDE
825,3658,Windermere/Langdale,176 Street SW & 7A Avenue SW,Playground,Engineered Wood Fibre,Wheelchair Accessible,Junior/Senior (18 months to 12 years),Parks,2015/12/31,53.427244,-113.622548,"(53.42724371398686, -113.62254811016669)",POINT (-113.62254811016669 53.42724371398686),5570,WINDERMERE
812,995,John J. Olinyk Park,4626 115 Avenue NW,Playground,Pour In Place Rubber,Wheelchair Accessible,Junior (18 months to 5 years),Parks,2010/12/31,53.568497,-113.412965,"(53.56849662617502, -113.41296522630711)",POINT (-113.41296522630711 53.56849662617502),2100,BEVERLY HEIGHTS
323,18,Killarney Park,8720 130A Avenue NW,Playground,Sand,Unknown,Junior/Senior (18 months to 12 years),Parks,1985/12/31,53.590619,-113.474843,"(53.59061872905394, -113.47484259830182)",POINT (-113.47484259830182 53.59061872905394),2420,KILLARNEY
562,114,Colonel F.C. Jamieson School/M. Kostek,5303 190 Street NW,Playground,Sand,Unknown,Junior/Senior (18 months to 12 years),Parks,2019/12/31,53.490261,-113.650936,"(53.49026102949452, -113.65093566830228)",POINT (-113.65093566830228 53.49026102949452),4220,JAMIESON PLACE
563,114,Colonel F.C. Jamieson School/M. Kostek,5303 190 Street NW,Playground,Pour In Place Rubber,Wheelchair Accessible,Junior/Senior (18 months to 12 years),Parks,2019/12/31,53.490360,-113.650229,"(53.490359647383514, -113.6502289576172)",POINT (-113.6502289576172 53.490359647383514),4220,JAMIESON PLACE
604,269,Dechene Park Playground,18209 57 Avenue NW,Playground,Sand,Unknown,Junior/Senior (18 months to 12 years),Parks,1997/12/31,53.491305,-113.636960,"(53.49130497340414, -113.63696012697774)",POINT (-113.63696012697774 53.49130497340414),4110,DECHENE
870,1781,"W.C. ""Tubby"" Bateman Park",9703 88 Avenue NW,Playground,Sand,Unknown,Junior/Senior (18 months to 12 years),Parks,2002/12/31,53.523311,-113.480039,"(53.523310751458084, -113.48003926630716)",POINT (-113.48003926630716 53.523310751458084),5480,STRATHCONA
21734,3818,Glengarry Park Playground,134 Avenue NW and 89 Street NW,Playground,Engineered Wood Fibre,Wheelchair Accessible,Junior (18 months to 5 years),Parks,2023/07/16,53.595844,-113.476227,"(53.59584431521658, -113.47622704871216)",POINT (-113.47622704871216 53.59584431521658),2290,GLENGARRY
257,1722,Potter Greens Playground (West),Picard Drive - Proctor Wynd,Playground,Sand,Unknown,Junior/Senior (18 months to 12 years),Parks,2001/12/31,53.517774,-113.674899,"(53.51777353296967, -113.6748985177661)",POINT (-113.6748985177661 53.51777353296967),4710,POTTER GREENS
739,980,Belmont,3250 132 A Avenue NW,Playground,Sand,Unknown,Junior/Senior (18 months to 12 years),Parks,1999/12/31,53.593328,-113.393858,"(53.59332840748063, -113.39385835550064)",POINT (-113.39385835550064 53.59332840748063),2070,BELMONT
169,122,Ottewell Community League,5920 93A Avenue NW,Playground,"Pour In Place Rubber, Sand",Wheelchair Accessible,Senior (6 to 12 years),Parks,2009/12/31,53.531033,-113.424093,"(53.53103333098995, -113.42409289384747)",POINT (-113.42409289384747 53.53103333098995),6550,OTTEWELL
384,729,Mary Finlay Park,10304 82 Street NW,Playground,Pour In Place Rubber,Wheelchair Accessible,Senior (6 to 12 years),Parks,2012/12/31,53.543475,-113.451510,"(53.54347478960091, -113.4515104706555)",POINT (-113.4515104706555 53.54347478960091),6230,FOREST HEIGHTS
331,36,Montrose Community League,5920 119 Avenue NW,Playground,Pour In Place Rubber,Wheelchair Accessible,Junior (18 months to 5 years),Parks,2010/12/31,53.572396,-113.432964,"(53.572395954577594, -113.43296421340457)",POINT (-113.43296421340457 53.572395954577594),2550,MONTROSE
329,36,Montrose Community League,5920 119 Avenue NW,Playground,Pour In Place Rubber,Wheelchair Accessible,Senior (6 to 12 years),Parks,2010/12/31,53.572626,-113.433006,"(53.57262579832765, -113.43300586280404)",POINT (-113.43300586280404 53.57262579832765),2550,MONTROSE
525,1660,Chalmers Park Playground,12310 131 Avenue NW,Playground,Sand,Unknown,Junior/Senior (18 months to 12 years),Parks,1997/12/31,53.590890,-113.534095,"(53.59088955411883, -113.53409497921041)",POINT (-113.53409497921041 53.59088955411883),3070,CALDER
193,309,Kinsmen Park Senior,9100 Walterdale Hill NW,Playground,Engineered Wood Fibre,Wheelchair Accessible,Junior/Senior (18 months to 12 years),Parks,2013/12/31,53.526864,-113.509319,"(53.526863643126575, -113.50931865767471)",POINT (-113.50931865767471 53.526863643126575),5390,RIVER VALLEY WALTERDALE
313,3261,Leger School,Leger Road - Leger Court NW,Playground,"Engineered Wood Fibre, Pour In Place Rubber",Unknown,Junior/Senior (18 months to 12 years),Parks,2006/12/31,53.459256,-113.576727,"(53.459255959027104, -113.57672748944705)",POINT (-113.57672748944705 53.459255959027104),5630,LEGER
258,296,Primrose Park Playground,85 Avenue and 189 Street NW,Playground,Sand,Unknown,Junior/Senior (18 months to 12 years),Parks,1990/12/31,53.517778,-113.648250,"(53.51777826097316, -113.64825000642088)",POINT (-113.64825000642088 53.51777826097316),4020,ALDERGROVE
540,3621,Chappelle Rope Climber,484 - Chappelle Drive SW,Playground,Engineered Wood Fibre,Wheelchair Accessible,Junior/Senior (18 months to 12 years),Parks,2014/12/31,53.403971,-113.570012,"(53.403970587885595, -113.57001169680228)",POINT (-113.57001169680228 53.403970587885595),5462,CHAPPELLE
721,1669,Forest Heights Park,76 Street - 106A Avenue NW,Playground,Sand,Unknown,Junior/Senior (18 months to 12 years),Parks,1980/12/31,53.551080,-113.445261,"(53.55107965612862, -113.44526087018603)",POINT (-113.44526087018603 53.55107965612862),6230,FOREST HEIGHTS
698,780,Canon Ridge,Hermitage and Hooke Road,Playground,Sand,Wheelchair Accessible,Unknown,Parks,2011/12/31,53.580507,-113.378324,"(53.58050714213101, -113.37832409672382)",POINT (-113.37832409672382 53.58050714213101),2120,CANON RIDGE
633,3200,Doug Kelly Park Playground,208 Street NW & 57 Avenue NW,Playground,Engineered Wood Fibre,Wheelchair Accessible,Junior/Senior (18 months to 12 years),Parks,2007/12/31,53.492852,-113.679328,"(53.49285186526785, -113.67932841855372)",POINT (-113.67932841855372 53.49285186526785),4461,THE HAMPTONS
544,89,Dunluce Community Playground,11620 162 Avenue NW,Playground,Sand,Unknown,Junior/Senior (18 months to 12 years),Parks,1999/12/31,53.623730,-113.525091,"(53.62372982663689, -113.52509077332832)",POINT (-113.52509077332832 53.62372982663689),3180,DUNLUCE
263,91,Lauderdale Community Playground,12935 107 Street NW,Playground,Sand,Unknown,Junior/Senior (18 months to 12 years),Parks,1999/12/31,53.588703,-113.503303,"(53.588703068406254, -113.50330296315522)",POINT (-113.50330296315522 53.588703068406254),3260,LAUDERDALE
405,3668,Sister Annata Brockman Playground,365 Hemingway Rd NW,Playground,"Pour In Place Rubber, Sand",Wheelchair Accessible,Junior/Senior (18 months to 12 years),Parks,2015/12/31,53.490125,-113.683423,"(53.49012505429033, -113.68342291880452)",POINT (-113.68342291880452 53.49012505429033),4461,THE HAMPTONS
485,3631,Secord Corner Park Playground,9550 - 217 STREET NW,Playground,Engineered Wood Fibre,Wheelchair Accessible,Junior/Senior (18 months to 12 years),Parks,2010/12/31,53.533556,-113.691811,"(53.53355574686767, -113.69181141191649)",POINT (-113.69181141191649 53.53355574686767),4487,SECORD
489,98,Sherbrooke Community Playground,13008 122 Avenue NW,Playground,Engineered Wood Fibre,Wheelchair Accessible,Junior/Senior (18 months to 12 years),Parks,2013/12/31,53.574946,-113.548205,"(53.5749456792142, -113.54820494067006)",POINT (-113.54820494067006 53.5749456792142),3410,SHERBROOKE
657,3644,Granville Getty Playground,7630 Getty Link,Playground,Engineered Wood Fibre,Wheelchair Accessible,Junior/Senior (18 months to 12 years),Parks,2012/12/31,53.498797,-113.679121,"(53.49879653264064, -113.67912123821485)",POINT (-113.67912123821485 53.49879653264064),4551,GRANVILLE
157,1928,Buffalo Wallow Natural Play Area,10955 - 50 STREET NW T6A2E9,Playground,Sand,Unknown,Junior (18 months to 5 years),Parks,2012/08/21,53.555756,-113.405258,"(53.555755571029536, -113.40525820519964)",POINT (-113.40525820519964 53.555755571029536),6620,RIVER VALLEY GOLD BAR
708,2020,Beaumaris Park Playground,100 Street - 156 Avenue NW,Playground,"Pour In Place Rubber, Sand",Wheelchair Accessible,Junior/Senior (18 months to 12 years),Parks,2003/12/31,53.616677,-113.497775,"(53.61667732621771, -113.4977753234879)",POINT (-113.4977753234879 53.61667732621771),3040,BEAUMARIS
429,32,St. Dominic School,5804 144 Avenue NW,Playground,Sand,Unknown,Senior (6 to 12 years),Parks,1994/12/31,53.605931,-113.433769,"(53.60593127749578, -113.43376886633295)",POINT (-113.43376886633295 53.60593127749578),2530,MCLEOD
265,28,Mee - Yah - Noh School,92 St. - 128 A Avenue,Playground,Sand,Unknown,Senior (6 to 12 years),Parks,1998/12/31,53.587720,-113.482947,"(53.58772008295273, -113.48294735109172)",POINT (-113.48294735109172 53.58772008295273),2420,KILLARNEY
691,383,Balwin Park,12904 74 Street NW,Playground,Sand,Unknown,Senior (6 to 12 years),Parks,1998/12/31,53.587390,-113.455918,"(53.5873900319542, -113.45591788398282)",POINT (-113.45591788398282 53.5873900319542),2020,BALWIN
539,3620,Chappelle Park,5190 - Chappelle Road SW,Playground,Engineered Wood Fibre,Wheelchair Accessible,Junior/Senior (18 months to 12 years),Parks,2014/12/31,53.399332,-113.571866,"(53.39933213117125, -113.571866211876)",POINT (-113.571866211876 53.39933213117125),5462,CHAPPELLE
925,319,Tipton Park,10849 81 Avenue NW,Playground,Sand,Unknown,Junior/Senior (18 months to 12 years),Parks,1950/12/31,53.516306,-113.510039,"(53.51630595782012, -113.5100388562616)",POINT (-113.5100388562616 53.51630595782012),5330,QUEEN ALEXANDRA
437,1661,St. Gabriel Catholic School,5540 106 Avenue NW,Playground,Sand,Unknown,Junior (18 months to 5 years),Parks,1997/12/31,53.550543,-113.423411,"(53.55054290185073, -113.42341100418375)",POINT (-113.42341100418375 53.55054290185073),6061,CAPILANO
897,3695,Tamarack Common Playground,1615 - TAMARACK BOULEVARD NW,Playground,Engineered Wood Fibre,Wheelchair Accessible,Junior/Senior (18 months to 12 years),Parks,2013/12/31,53.458945,-113.362837,"(53.458944987201406, -113.36283744002762)",POINT (-113.36283744002762 53.458944987201406),6443,TAMARACK
205,65,Kirkness School/Park,610 Kirkness Road NW,Playground,Sand,Unknown,Senior (6 to 12 years),Parks,1994/12/31,53.611747,-113.384925,"(53.61174725551899, -113.38492536816105)",POINT (-113.38492536816105 53.61174725551899),2430,KIRKNESS
305,3401,Miller Park,50 St-Matheson Way,Playground,Engineered Wood Fibre,Wheelchair Accessible,Senior (6 to 12 years),Parks,2007/12/31,53.612541,-113.415969,"(53.61254081113823, -113.41596860207741)",POINT (-113.41596860207741 53.61254081113823),2541,MILLER
567,51,Glengarry School,9211 135 Avenue NW,Playground,Sand,Unknown,Junior/Senior (18 months to 12 years),Parks,1984/12/31,53.595501,-113.484563,"(53.595500811441504, -113.48456296865547)",POINT (-113.48456296865547 53.595500811441504),2290,GLENGARRY
500,608,Rideau School,42 Avenue - 106 Street NW,Playground,Sand,Unknown,Junior/Senior (18 months to 12 years),Parks,2003/12/31,53.478471,-113.504629,"(53.478471036509205, -113.50462889593192)",POINT (-113.50462889593192 53.478471036509205),5360,RIDEAU PARK
187,54,Homesteader School,4455 - 128 AVENUE NW T5A3M9,Playground,"Pour In Place Rubber, Sand",Wheelchair Accessible,Senior (6 to 12 years),Parks,2004/12/31,53.586963,-113.412381,"(53.58696260542016, -113.41238104128561)",POINT (-113.41238104128561 53.58696260542016),2350,HOMESTEADER
593,265,Gordon Drynan Park,10320 166 Street NW,Playground,Sand,Unknown,Junior/Senior (18 months to 12 years),Parks,1994/12/31,53.546128,-113.609344,"(53.54612846837853, -113.60934391456043)",POINT (-113.60934391456043 53.54612846837853),4060,BRITANNIA YOUNGSTOWN
299,101,Laurier Heights School Playground,8210 142 Street NW,Playground,Sand,Unknown,Junior/Senior (18 months to 12 years),Parks,1995/12/31,53.516992,-113.567280,"(53.51699213442381, -113.5672796841497)",POINT (-113.5672796841497 53.51699213442381),3270,LAURIER HEIGHTS
754,3675,Bessie Nichols School Playground,189 Hemingway Road NW,Playground,Pour In Place Rubber,Wheelchair Accessible,Junior/Senior (18 months to 12 years),Parks,2016/12/31,53.486683,-113.671982,"(53.48668281380394, -113.67198164847801)",POINT (-113.67198164847801 53.48668281380394),4461,THE HAMPTONS
613,390,Borden Park,7405 - 112 Avenue NW,Playground,Engineered Wood Fibre,Wheelchair Accessible,Unknown,Parks,2012/12/31,53.561935,-113.454225,"(53.561934827936255, -113.45422498622796)",POINT (-113.45422498622796 53.561934827936255),1240,VIRGINIA PARK
795,3735,Callaghan Park Playground,1385 Cunningham Drive SW,Playground,Sand,Wheelchair Accessible,Junior/Senior (18 months to 12 years),Parks,2018/08/31,53.406085,-113.528545,"(53.406084822617764, -113.52854525953254)",POINT (-113.52854525953254 53.406084822617764),5457,CALLAGHAN
695,93,Baturyn Playground,10505 172 Avenue NW,Playground,Sand,Unknown,Junior/Senior (18 months to 12 years),Parks,2021/10/15,53.632672,-113.504831,"(53.63267164037009, -113.50483112184324)",POINT (-113.50483112184324 53.63267164037009),3030,BATURYN
743,87,Castle Downs Park Playground,11520 153 Avenue NW,Playground,Pour In Place Rubber,Wheelchair Accessible,Junior/Senior (18 months to 12 years),Parks,2010/12/31,53.616606,-113.525147,"(53.616605539732475, -113.52514722397196)",POINT (-113.52514722397196 53.616605539732475),3180,DUNLUCE
13327,1940,Rosslyn Neighbourhood Park Playground,13535 104 Street NW,Playground,Sand,Unknown,Junior/Senior (18 months to 12 years),Parks,1970/12/31,53.597838,-113.498434,"(53.59783775909303, -113.49843389786972)",POINT (-113.49843389786972 53.59783775909303),3390,ROSSLYN
917,3658,Windermere/Langdale,176 Street SW & 7A Avenue SW,Playground,Engineered Wood Fibre,Wheelchair Accessible,Junior/Senior (18 months to 12 years),Parks,2015/12/31,53.427404,-113.622286,"(53.42740436507101, -113.6222861286135)",POINT (-113.6222861286135 53.42740436507101),5570,WINDERMERE
348,132,Hazeldean School,9630 66 Avenue NW,Playground,"Pour In Place Rubber, Sand",Wheelchair Accessible,Junior/Senior (18 months to 12 years),Parks,2014/12/31,53.503214,-113.477057,"(53.50321391236794, -113.47705736681976)",POINT (-113.47705736681976 53.50321391236794),6290,HAZELDEAN
502,608,Rideau School,42 Avenue - 106 Street NW,Playground,Sand,Unknown,Junior/Senior (18 months to 12 years),Parks,2003/12/31,53.477999,-113.504616,"(53.47799921284156, -113.5046155457872)",POINT (-113.5046155457872 53.47799921284156),5360,RIDEAU PARK
459,2181,Rundle Park,2909 113 Avenue NW,Playground,Engineered Wood Fibre,Wheelchair Accessible,Unknown,Parks,2005/12/31,53.554996,-113.386416,"(53.554996463630076, -113.38641599938379)",POINT (-113.38641599938379 53.554996463630076),2650,RIVER VALLEY RUNDLE
189,55,Horse Hill School,19355 Meridian Street NW,Playground,Sand,Unknown,Senior (6 to 12 years),Parks,1994/12/31,53.657118,-113.343117,"(53.657118418928235, -113.34311736417936)",POINT (-113.34311736417936 53.657118418928235),2671,MARQUIS
190,3581,Hudson Park Playground,Cumberland Rd & 138 St,Playground,"Pour In Place Rubber, Sand",Wheelchair Accessible,Junior/Senior (18 months to 12 years),Parks,2009/12/31,53.607629,-113.556273,"(53.60762852722486, -113.55627298615973)",POINT (-113.55627298615973 53.60762852722486),3480,HUDSON
558,3637,Charlesworth,5805 - 3 Ave SW,Playground,Engineered Wood Fibre,Wheelchair Accessible,Junior (18 months to 5 years),Parks,2014/12/31,53.429506,-113.431498,"(53.429505880370286, -113.43149788204866)",POINT (-113.43149788204866 53.429505880370286),6661,CHARLESWORTH
2127,3776,Charlesworth Stage 25,231 Charlesworth Drive SW,Playground,Engineered Wood Fibre,Wheelchair Accessible,Senior (6 to 12 years),Parks,2021/08/09,53.428883,-113.398999,"(53.428883053118724, -113.39899864498165)",POINT (-113.39899864498165 53.428883053118724),6661,CHARLESWORTH
185,3663,Paisley Park,3051 Paisley Green SW,Playground,Pour In Place Rubber,Wheelchair Accessible,Junior/Senior (18 months to 12 years),Parks,2015/12/31,53.414673,-113.559571,"(53.41467318477855, -113.55957141003316)",POINT (-113.55957141003316 53.41467318477855),5469,PAISLEY
133,611,Pleasantview School,10541 - 60A AVENUE NW T6H1K4,Playground,Engineered Wood Fibre,Wheelchair Accessible,Junior/Senior (18 months to 12 years),Parks,2012/08/16,53.494923,-113.503989,"(53.494922534359084, -113.50398909441093)",POINT (-113.50398909441093 53.494922534359084),5320,PLEASANTVIEW
332,37,Montrose School,11931 62 Street NW,Playground,Sand,Unknown,Junior/Senior (18 months to 12 years),Parks,1996/12/31,53.572403,-113.435540,"(53.572402752626864, -113.43553985438945)",POINT (-113.43553985438945 53.572402752626864),2550,MONTROSE
301,1944,Sir Wilfrid Laurier Natural Playground,13221 Buena Vista Road,Playground,Engineered Wood Fibre,Wheelchair Accessible,Junior/Senior (18 months to 12 years),Parks,2020/01/01,53.510204,-113.549260,"(53.51020444821102, -113.54925990093108)",POINT (-113.54925990093108 53.51020444821102),3382,RIVER VALLEY LAURIER
199,268,Parkview Community Playground,9135 146 Street NW,Playground,"Pour In Place Rubber, Sand",Wheelchair Accessible,Junior/Senior (18 months to 12 years),Parks,2007/12/31,53.525352,-113.569527,"(53.52535203638188, -113.56952687337578)",POINT (-113.56952687337578 53.52535203638188),3330,PARKVIEW
608,308,Ellingson Park,11104 65 Avenue NW,Playground,Sand,Unknown,Junior/Senior (18 months to 12 years),Parks,2012/12/31,53.502908,-113.517957,"(53.50290786167275, -113.51795723739056)",POINT (-113.51795723739056 53.50290786167275),5310,PARKALLEN
273,585,Queen Elizabeth Park,10380 Queen Elizabeth Park Road,Playground,Sand,Unknown,Junior/Senior (18 months to 12 years),Parks,1978/12/31,53.525250,-113.494748,"(53.52525005606775, -113.49474792456652)",POINT (-113.49474792456652 53.52525005606775),5390,RIVER VALLEY WALTERDALE
282,3610,Michael Strembitsky,4110 - SAVARYN DRIVE SW,Playground,"Pour In Place Rubber, Sand",Wheelchair Accessible,Junior (18 months to 5 years),Parks,2013/12/31,53.413589,-113.462443,"(53.41358891569145, -113.46244302002853)",POINT (-113.46244302002853 53.41358891569145),6213,SUMMERSIDE
741,87,Castle Downs Park Playground,11520 153 Avenue NW,Playground,"Pour In Place Rubber, Sand",Wheelchair Accessible,Junior/Senior (18 months to 12 years),Parks,2010/12/31,53.616627,-113.525583,"(53.61662692346793, -113.5255828630538)",POINT (-113.5255828630538 53.61662692346793),3180,DUNLUCE
615,41,Delwood School/Park,7315 Delwood Road NW,Playground,Sand,Unknown,Junior/Senior (18 months to 12 years),Parks,1988/12/31,53.596452,-113.457527,"(53.596451649950836, -113.45752665946071)",POINT (-113.45752665946071 53.596451649950836),2230,DELWOOD
186,54,Homesteader School,4455 - 128 AVENUE NW T5A3M9,Playground,"Pour In Place Rubber, Sand",Wheelchair Accessible,Junior (18 months to 5 years),Parks,2004/12/31,53.587155,-113.412420,"(53.58715484587978, -113.4124195094491)",POINT (-113.4124195094491 53.58715484587978),2350,HOMESTEADER
532,50,Giovanni Caboto,9403 109A Avenue NW,Playground,Pour In Place Rubber,Wheelchair Accessible,Junior (18 months to 5 years),Parks,2005/12/31,53.556344,-113.484048,"(53.556343628860105, -113.4840482183873)",POINT (-113.4840482183873 53.556343628860105),1140,MCCAULEY
234,303,McKernan School,11330 76 Avenue NW,Playground,Sand,Unknown,Junior/Senior (18 months to 12 years),Parks,1998/12/31,53.513757,-113.523240,"(53.513757221379, -113.52323957110875)",POINT (-113.52323957110875 53.513757221379),5290,MCKERNAN
297,100,Laurier Heights Community Playground,14405 85 Avenue NW,Playground,Sand,Unknown,Junior/Senior (18 months to 12 years),Parks,2001/12/31,53.516469,-113.569458,"(53.51646863070117, -113.56945847565348)",POINT (-113.56945847565348 53.51646863070117),3270,LAURIER HEIGHTS
730,3560,Ambleside Stage 9 (Rope Climb),Austin Link and Armitage Crescent SW,Playground,Engineered Wood Fibre,Wheelchair Accessible,Junior/Senior (18 months to 12 years),Parks,2008/12/31,53.430032,-113.608970,"(53.43003187600462, -113.60896974794213)",POINT (-113.60896974794213 53.43003187600462),5505,AMBLESIDE
685,807,Alberta Avenue,9210 119 Avenue NW,Playground,Pour In Place Rubber,Wheelchair Accessible,Junior/Senior (18 months to 12 years),Parks,2000/12/31,53.571263,-113.483903,"(53.57126309614836, -113.48390294571175)",POINT (-113.48390294571175 53.57126309614836),1010,ALBERTA AVENUE
156,3652,Ecole Sainte-Jeanne-d'Arc Exercise Area,8505 68A Street NW,Playground,Engineered Wood Fibre,Unknown,Senior (6 to 12 years),Parks,2015/05/20,53.520020,-113.430773,"(53.52001952539274, -113.4307731748483)",POINT (-113.4307731748483 53.52001952539274),6350,KENILWORTH
914,587,William Hawrelak Park Playground,9330 Groat Road,Playground,Sand,Unknown,Junior/Senior (18 months to 12 years),Parks,1973/12/31,53.526765,-113.544045,"(53.5267651534942, -113.54404508588229)",POINT (-113.54404508588229 53.5267651534942),5370,RIVER VALLEY MAYFAIR
597,123,Bonnie Doon Park,9263 94 Street NW,Playground,"Pour In Place Rubber, Sand",Wheelchair Accessible,Junior (18 months to 5 years),Parks,2011/12/31,53.527680,-113.470579,"(53.52768000101271, -113.47057872706597)",POINT (-113.47057872706597 53.52768000101271),6040,BONNIE DOON
339,583,King Edward School,8530 101 Street NW,Playground,Sand,Unknown,Junior (18 months to 5 years),Parks,1992/12/31,53.521372,-113.492484,"(53.521372103614674, -113.4924838134556)",POINT (-113.4924838134556 53.521372103614674),5480,STRATHCONA
394,388,Sheriff Robertson Park,7707 112 Avenue NW,Playground,Pour In Place Rubber,Wheelchair Accessible,Junior (18 months to 5 years),Parks,2000/12/31,53.559097,-113.466354,"(53.55909735995556, -113.46635363350914)",POINT (-113.46635363350914 53.55909735995556),1190,RIVER VALLEY KINNAIRD
787,3657,Strathearn Park,87 Street NW and 93 Avenue NW,Playground,Engineered Wood Fibre,Wheelchair Accessible,Senior (6 to 12 years),Parks,2018/12/31,53.529528,-113.461215,"(53.529527852204204, -113.46121453276993)",POINT (-113.46121453276993 53.529527852204204),6710,STRATHEARN
871,3676,Walker Park,1438 Watt Drive,Playground,Pour In Place Rubber,Wheelchair Accessible,Unknown,Parks,2014/12/31,53.414277,-113.436734,"(53.41427689067562, -113.43673356488397)",POINT (-113.43673356488397 53.41427689067562),6662,WALKER
497,320,Queen Alexandra Community League,10722 - 73 AVENUE NW,Playground,"Pour In Place Rubber, Sand",Wheelchair Accessible,Junior/Senior (18 months to 12 years),Parks,2016/12/31,53.509695,-113.508243,"(53.50969526847755, -113.50824316931538)",POINT (-113.50824316931538 53.50969526847755),5330,QUEEN ALEXANDRA
376,3687,Hills at Charlesworth,345 Charlesworth Drive SW,Playground,Engineered Wood Fibre,Wheelchair Accessible,Junior/Senior (18 months to 12 years),Parks,2016/12/31,53.427004,-113.399107,"(53.42700427817525, -113.39910685016275)",POINT (-113.39910685016275 53.42700427817525),6661,CHARLESWORTH
747,131,Gallagher Park,9750 98 Avenue NW,Playground,Sand,Unknown,Senior (6 to 12 years),Parks,1998/12/31,53.535953,-113.472532,"(53.53595323293015, -113.47253153392614)",POINT (-113.47253153392614 53.53595323293015),6070,CLOVERDALE
712,157,Capilano School,10720 54 Street NW,Playground,"Pour In Place Rubber, Sand",Wheelchair Accessible,Senior (6 to 12 years),Parks,2014/12/31,53.555882,-113.422029,"(53.55588200078857, -113.42202926001286)",POINT (-113.42202926001286 53.55588200078857),6061,CAPILANO
312,141,Lee Ridge School,440 Millbourne Road East NW,Playground,"Pour In Place Rubber, Sand",Wheelchair Accessible,Senior (6 to 12 years),Parks,1992/12/31,53.471164,-113.446166,"(53.471164135539205, -113.44616598292009)",POINT (-113.44616598292009 53.471164135539205),6400,LEE RIDGE
353,331,Kinross-Kerr Park Playground,264 Rhatigan Road East NW,Playground,Sand,Unknown,Junior/Senior (18 months to 12 years),Parks,1994/12/31,53.476011,-113.596635,"(53.47601091256686, -113.5966350253878)",POINT (-113.5966350253878 53.47601091256686),5350,RHATIGAN RIDGE
259,3685,Poplar Park,16410 82 Street NW,Playground,Sand,Unknown,Unknown,Parks,2015/12/31,53.626273,-113.473333,"(53.62627312451377, -113.47333288495625)",POINT (-113.47333288495625 53.62627312451377),2050,BELLE RIVE
530,160,George Luck School,300 Bulyea Road NW,Playground,Sand,Unknown,Junior/Senior (18 months to 12 years),Parks,2001/12/31,53.472906,-113.572799,"(53.47290571782657, -113.57279941578705)",POINT (-113.57279941578705 53.47290571782657),5100,BULYEA HEIGHTS
858,3654,Rosenthal Playground,1070 Rosenthal Blvd NW,Playground,Engineered Wood Fibre,Wheelchair Accessible,Junior/Senior (18 months to 12 years),Parks,2015/12/31,53.517192,-113.699276,"(53.51719154640897, -113.699276094624)",POINT (-113.699276094624 53.51719154640897),4750,ROSENTHAL
654,162,Greenfield Community League,3755 - 114 STREET NW,Playground,Engineered Wood Fibre,Wheelchair Accessible,Junior/Senior (18 months to 12 years),Parks,2009/12/31,53.473511,-113.526035,"(53.47351052023272, -113.52603490756513)",POINT (-113.52603490756513 53.47351052023272),5220,GREENFIELD
720,398,Floden Park,4209 Ada Boulevard NW,Playground,"Pour In Place Rubber, Sand",Wheelchair Accessible,Junior (18 months to 5 years),Parks,2005/12/31,53.563822,-113.407763,"(53.56382214376614, -113.40776266777175)",POINT (-113.40776266777175 53.56382214376614),2100,BEVERLY HEIGHTS
689,316,Ermineskin Park,25A Avenue - 107 Street NW,Playground,"Engineered Wood Fibre, Pour In Place Rubber",Unknown,Junior/Senior (18 months to 12 years),Parks,1989/12/31,53.456929,-113.506146,"(53.45692942125545, -113.50614587909517)",POINT (-113.50614587909517 53.45692942125545),5180,ERMINESKIN
916,3659,Windermere Tot,4720 Woolsey Common,Playground,Engineered Wood Fibre,Wheelchair Accessible,Junior/Senior (18 months to 12 years),Parks,2015/12/31,53.447510,-113.611288,"(53.44751037673136, -113.6112882272042)",POINT (-113.6112882272042 53.44751037673136),5570,WINDERMERE
688,402,Alex Taylor School,9321 Jasper Avenue NW,Playground,Sand,Unknown,Junior/Senior (18 months to 12 years),Parks,1995/12/31,53.546736,-113.476471,"(53.546735673367365, -113.47647100042238)",POINT (-113.47647100042238 53.546735673367365),1020,BOYLE STREET
398,745,Silver Heights Park,8777 96 Avenue NW,Playground,"Pour In Place Rubber, Sand",Wheelchair Accessible,Junior (18 months to 5 years),Parks,2006/12/31,53.532827,-113.464470,"(53.532827436210226, -113.46446968680135)",POINT (-113.46446968680135 53.532827436210226),6710,STRATHEARN
379,3605,Hodgson,503 Hodgson Road  NW,Playground,Engineered Wood Fibre,Wheelchair Accessible,Junior/Senior (18 months to 12 years),Parks,2012/12/31,53.458528,-113.558743,"(53.458528493698395, -113.55874337893984)",POINT (-113.55874337893984 53.458528493698395),5620,HODGSON
674,167,Empire Park Community League,4804 107 Street NW,Playground,Sand,Unknown,Junior/Senior (18 months to 12 years),Parks,2002/12/31,53.486142,-113.509134,"(53.48614162764069, -113.5091339781227)",POINT (-113.5091339781227 53.48614162764069),5170,EMPIRE PARK
524,403,Central McDougall,10630 109 Avenue NW,Playground,Sand,Unknown,Junior (18 months to 5 years),Parks,2001/12/31,53.555162,-113.503716,"(53.555161790815504, -113.50371629379799)",POINT (-113.50371629379799 53.555161790815504),1030,CENTRAL MCDOUGALL
260,330,James Ramsay Park,15010 - 43 AVENUE NW,Playground,"Pour In Place Rubber, Sand",Wheelchair Accessible,Junior/Senior (18 months to 12 years),Parks,2006/12/31,53.481120,-113.581429,"(53.481119879385275, -113.5814286292491)",POINT (-113.5814286292491 53.481119879385275),5340,RAMSAY HEIGHTS
670,23,Airway Park,11119 113 Street NW,Playground,Sand,Unknown,Junior/Senior (18 months to 12 years),Parks,1950/12/31,53.560806,-113.514519,"(53.56080576353909, -113.51451918229682)",POINT (-113.51451918229682 53.56080576353909),1170,PRINCE RUPERT
219,1678,Mayliewan Park,7503 161A Avenue NW,Playground,Engineered Wood Fibre,Wheelchair Accessible,Senior (6 to 12 years),Parks,2005/12/31,53.622112,-113.459289,"(53.622112273035384, -113.45928899806019)",POINT (-113.45928899806019 53.622112273035384),2511,MAYLIEWAN
576,1662,Crestwood Arena Playground,9940 148 Street NW,Playground,Sand,Unknown,Junior/Senior (18 months to 12 years),Parks,1970/12/31,53.538863,-113.574912,"(53.538862851639465, -113.57491208101408)",POINT (-113.57491208101408 53.538862851639465),3140,CRESTWOOD
14527,139,Kameyosek School,250 Lakewood Road East NW,Playground,Sand,Unknown,Junior (18 months to 5 years),Parks,2023/07/12,53.461152,-113.443566,"(53.4611521280126, -113.44356636162357)",POINT (-113.44356636162357 53.4611521280126),6340,KAMEYOSEK
218,3260,Klarvatten,211 Klarvatten Road,Playground,Engineered Wood Fibre,Wheelchair Accessible,Junior/Senior (18 months to 12 years),Parks,2007/12/31,53.633128,-113.475618,"(53.63312843161053, -113.47561817100473)",POINT (-113.47561817100473 53.63312843161053),2440,KLARVATTEN
5328,3785,Blatchford Playground,2703 Blatchford Road NW,Playground,Engineered Wood Fibre,Wheelchair Accessible,Junior/Senior (18 months to 12 years),Parks,2021/12/01,53.568763,-113.516997,"(53.56876255869503, -113.51699665736773)",POINT (-113.51699665736773 53.56876255869503),1111,BLATCHFORD AREA
610,3643,Granville Goodridge Playground,3440 Goodridge Link,Playground,Engineered Wood Fibre,Wheelchair Accessible,Junior/Senior (18 months to 12 years),Parks,2014/12/31,53.507360,-113.679266,"(53.50735954524989, -113.67926645493395)",POINT (-113.67926645493395 53.50735954524989),4551,GRANVILLE
188,55,Horse Hill School,19355 Meridian Street NW,Playground,Sand,Unknown,Senior (6 to 12 years),Parks,1994/12/31,53.657175,-113.342801,"(53.65717548466125, -113.3428014054935)",POINT (-113.3428014054935 53.65717548466125),2671,MARQUIS
435,395,St. Elizabeth Seton School Park,3711 135 Avenue NW,Playground,"Pour In Place Rubber, Sand",Wheelchair Accessible,Senior (6 to 12 years),Parks,1996/12/31,53.594453,-113.397168,"(53.594453257611335, -113.39716795529438)",POINT (-113.39716795529438 53.594453257611335),2070,BELMONT
750,301,Garneau Community,10943 84 Avenue NW,Playground,Sand,Unknown,Junior/Senior (18 months to 12 years),Parks,1997/12/31,53.519795,-113.513443,"(53.51979500750399, -113.51344279737174)",POINT (-113.51344279737174 53.51979500750399),5200,GARNEAU
783,3700,Allard Playground,Allard Boulevard SW & Annett Com SW,Playground,Sand,Unknown,Junior/Senior (18 months to 12 years),Parks,2019/05/28,53.399929,-113.534269,"(53.39992915563856, -113.53426892482717)",POINT (-113.53426892482717 53.39992915563856),5458,ALLARD
213,60,J. A. Fife School,15804 76 Street NW,Playground,Sand,Unknown,Junior/Senior (18 months to 12 years),Parks,1999/12/31,53.611300,-113.461949,"(53.61130018798997, -113.46194898028222)",POINT (-113.46194898028222 53.61130018798997),2410,KILKENNY
584,3640,Griesbach Central Park Rock Garden Playground,2630 Sir Arthur Currie Way,Playground,Engineered Wood Fibre,Wheelchair Accessible,Senior (6 to 12 years),Parks,2014/12/31,53.606798,-113.500239,"(53.606798328323435, -113.50023872375155)",POINT (-113.50023872375155 53.606798328323435),3111,GRIESBACH
603,269,Dechene Park Playground,18209 57 Avenue NW,Playground,Sand,Unknown,Junior/Senior (18 months to 12 years),Parks,1997/12/31,53.491482,-113.636997,"(53.491482469188426, -113.63699729421191)",POINT (-113.63699729421191 53.491482469188426),4110,DECHENE
882,111,Summerlea Playground,176 Street - 93 Avenue NW,Playground,Pour In Place Rubber,Wheelchair Accessible,Junior/Senior (18 months to 12 years),Parks,2013/12/31,53.526913,-113.624120,"(53.52691331990684, -113.62411993741514)",POINT (-113.62411993741514 53.52691331990684),4520,SUMMERLEA
300,1944,Sir Wilfrid Laurier Natural Playground,13221 Buena Vista Road,Playground,Engineered Wood Fibre,Wheelchair Accessible,Junior/Senior (18 months to 12 years),Parks,2020/01/01,53.510463,-113.548799,"(53.51046346453969, -113.54879884728783)",POINT (-113.54879884728783 53.51046346453969),3382,RIVER VALLEY LAURIER
697,780,Canon Ridge,Hermitage and Hooke Road,Playground,"Pour In Place Rubber, Sand",Wheelchair Accessible,Unknown,Parks,2011/12/31,53.580641,-113.378536,"(53.58064095882221, -113.37853648802758)",POINT (-113.37853648802758 53.58064095882221),2120,CANON RIDGE
3,3725,Red Panda Parallel Play (Edmonton Valley Zoo),13221 Buena Vista Road NW,Playground,Pour In Place Rubber,Wheelchair Accessible,Junior/Senior (18 months to 12 years),Parks,2019/09/18,53.512618,-113.554011,"(53.512618014906415, -113.55401084932339)",POINT (-113.55401084932339 53.512618014906415),3382,RIVER VALLEY LAURIER
393,745,Silver Heights Park,8777 96 Avenue NW,Playground,"Pour In Place Rubber, Sand",Wheelchair Accessible,Junior (18 months to 5 years),Parks,2006/12/31,53.532705,-113.464535,"(53.53270541886366, -113.46453487846088)",POINT (-113.46453487846088 53.53270541886366),6710,STRATHEARN
710,1645,Beacon Heights Park Tot Lot,3424 119 A Avenue NW,Playground,Sand,Unknown,Junior/Senior (18 months to 12 years),Parks,1960/12/31,53.572987,-113.395704,"(53.572986838380274, -113.39570433899283)",POINT (-113.39570433899283 53.572986838380274),2040,BEACON HEIGHTS
330,36,Montrose Community League,5920 119 Avenue NW,Playground,Pour In Place Rubber,Wheelchair Accessible,Junior (18 months to 5 years),Parks,2010/12/31,53.572430,-113.433158,"(53.572430076088544, -113.43315831608885)",POINT (-113.43315831608885 53.572430076088544),2550,MONTROSE
354,331,Kinross-Kerr Park Playground,264 Rhatigan Road East NW,Playground,Sand,Unknown,Junior/Senior (18 months to 12 years),Parks,1994/12/31,53.476250,-113.596651,"(53.47625003660539, -113.59665143599692)",POINT (-113.59665143599692 53.47625003660539),5350,RHATIGAN RIDGE
469,3360,Rutherford (Johnny Bright School),Rutherford Road,Playground,"Pour In Place Rubber, Sand",Wheelchair Accessible,Junior/Senior (18 months to 12 years),Parks,2011/12/31,53.420181,-113.534681,"(53.4201813934737, -113.53468109419812)",POINT (-113.53468109419812 53.4201813934737),5454,RUTHERFORD
362,1782,Henri Legay,51 Street - 140 Avenue,Playground,Sand,Unknown,Junior/Senior (18 months to 12 years),Parks,1995/12/31,53.603711,-113.421230,"(53.60371107347973, -113.42123046944923)",POINT (-113.42123046944923 53.60371107347973),2720,YORK
385,729,Mary Finlay Park,10304 82 Street NW,Playground,Pour In Place Rubber,Wheelchair Accessible,Senior (6 to 12 years),Parks,2012/12/31,53.543557,-113.451369,"(53.5435566768341, -113.45136892590416)",POINT (-113.45136892590416 53.5435566768341),6230,FOREST HEIGHTS
462,391,Russ Barnes Arena,6725 120 Avenue NW,Playground,Sand,Unknown,Junior/Senior (18 months to 12 years),Parks,2019/12/31,53.574181,-113.446322,"(53.57418120627344, -113.44632165264565)",POINT (-113.44632165264565 53.57418120627344),2550,MONTROSE
217,776,Kitchener Park,11411 103 Avenue NW,Playground,Pour In Place Rubber,Wheelchair Accessible,Junior/Senior (18 months to 12 years),Parks,2015/12/31,53.544239,-113.518771,"(53.544239467200754, -113.51877110890669)",POINT (-113.51877110890669 53.544239467200754),1150,OLIVER
506,590,Violet Archer Park,10920 70 Avenue NW,Playground,Engineered Wood Fibre,Wheelchair Accessible,Junior/Senior (18 months to 12 years),Parks,2006/12/31,53.506854,-113.513451,"(53.50685449880699, -113.51345104244933)",POINT (-113.51345104244933 53.50685449880699),5310,PARKALLEN
765,112,Athlone Community Playground,13010 129 Street NW,Playground,"Pour In Place Rubber, Sand",Wheelchair Accessible,Junior/Senior (18 months to 12 years),Parks,2004/12/31,53.589305,-113.545773,"(53.58930502593799, -113.54577295469272)",POINT (-113.54577295469272 53.58930502593799),3010,ATHLONE
635,342,Elmwood/John Devolder Playground,16415 - 83 AVENUE NW T5R3V8,Playground,"Pour In Place Rubber, Sand",Wheelchair Accessible,Junior/Senior (18 months to 12 years),Parks,2010/12/31,53.515803,-113.605859,"(53.515802762661835, -113.6058593913611)",POINT (-113.6058593913611 53.515802762661835),4140,ELMWOOD
308,332,Prince Charles Playground,12033 125 Street NW,Playground,Engineered Wood Fibre,Wheelchair Accessible,Junior/Senior (18 months to 12 years),Parks,2007/12/31,53.574441,-113.536689,"(53.57444079782873, -113.53668892624046)",POINT (-113.53668892624046 53.57444079782873),3350,PRINCE CHARLES
648,263,Dovercourt Community Playground,13510 Dovercourt Avenue NW,Playground,"Pour In Place Rubber, Sand",Wheelchair Accessible,Junior/Senior (18 months to 12 years),Parks,2004/12/31,53.575865,-113.559672,"(53.575865002940645, -113.55967204377797)",POINT (-113.55967204377797 53.575865002940645),3170,DOVERCOURT
351,145,Kiniski Gardens School/Burnewood,4104 41 Street NW,Playground,"Engineered Wood Fibre, Pour In Place Rubber, Sand",Wheelchair Accessible,Senior (6 to 12 years),Parks,2012/12/31,53.477650,-113.404033,"(53.47765038566308, -113.40403326826075)",POINT (-113.40403326826075 53.47765038566308),6370,KINISKI GARDENS
202,99,Inglewood School Playground,12525 116 Avenue NW,Playground,Pour In Place Rubber,Wheelchair Accessible,Junior/Senior (18 months to 12 years),Parks,2021/11/17,53.566353,-113.539218,"(53.56635295129612, -113.53921771443751)",POINT (-113.53921771443751 53.56635295129612),3240,INGLEWOOD
602,128,Daly Grove School,1888 37 Street NW,Playground,"Pour In Place Rubber, Sand",Wheelchair Accessible,Junior/Senior (18 months to 12 years),Parks,2005/12/31,53.448962,-113.399289,"(53.4489622122654, -113.3992886542126)",POINT (-113.3992886542126 53.4489622122654),6150,DALY GROVE
432,1647,Robert Brett Park,56 Street - 134 A Avenue NW,Playground,Sand,Unknown,Junior (18 months to 5 years),Parks,1976/12/31,53.596469,-113.427752,"(53.596468605342636, -113.42775211185825)",POINT (-113.42775211185825 53.596468605342636),2080,BELVEDERE
116,3728,David Thomas King School Playground,600 Secord Boulevard NW,Playground,Sand,Wheelchair Accessible,Junior/Senior (18 months to 12 years),Parks,2019/10/31,53.535950,-113.707005,"(53.53594969637662, -113.70700454482605)",POINT (-113.70700454482605 53.53594969637662),4487,SECORD
668,67,Abbottsfield Park,12000 Abbottsfield Road NW,Playground,Sand,Unknown,Junior/Senior (18 months to 12 years),Parks,2016/12/31,53.573682,-113.390049,"(53.573682332156096, -113.39004907641561)",POINT (-113.39004907641561 53.573682332156096),2010,ABBOTTSFIELD
625,1927,Gold Bar Condos,4404 - 101 AVENUE NW,Playground,Sand,Unknown,Senior (6 to 12 years),Parks,1979/12/31,53.542681,-113.409532,"(53.54268075480997, -113.40953158837462)",POINT (-113.40953158837462 53.54268075480997),6620,RIVER VALLEY GOLD BAR
929,3774,Arbours of Keswick Playground,1375 Keswick Drive SW,Playground,Engineered Wood Fibre,Wheelchair Accessible,Senior (6 to 12 years),Parks,2021/04/01,53.412257,-113.630474,"(53.41225715053366, -113.63047357787536)",POINT (-113.63047357787536 53.41225715053366),5574,KESWICK
738,3373,Belmead School Playground,9109 182 Street NW,Playground,Sand,Unknown,Junior/Senior (18 months to 12 years),Parks,2000/12/31,53.525850,-113.635969,"(53.52584985121267, -113.63596930468589)",POINT (-113.63596930468589 53.52584985121267),4040,BELMEAD
387,77,Ormsby Playground,6315 184 Street NW,Playground,Sand,Unknown,Junior/Senior (18 months to 12 years),Parks,2004/12/31,53.497388,-113.637123,"(53.49738784926636, -113.6371231845356)",POINT (-113.6371231845356 53.49738784926636),4380,ORMSBY PLACE
324,307,Lendrum Elementary School (EPSB),11330 54 Avenue NW,Playground,Sand,Unknown,Junior/Senior (18 months to 12 years),Parks,1996/12/31,53.491384,-113.522979,"(53.49138431016448, -113.52297861004715)",POINT (-113.52297861004715 53.49138431016448),5270,LENDRUM PLACE
560,588,Charles Simmonds Park,7830 115 Street NW,Playground,Sand,Unknown,Junior/Senior (18 months to 12 years),Parks,1977/12/31,53.515598,-113.530591,"(53.51559848274364, -113.53059078726804)",POINT (-113.53059078726804 53.51559848274364),5290,MCKERNAN
261,267,Jasper Park Community Playground,8751 153 Street NW,Playground,"Engineered Wood Fibre, Pour In Place Rubber",Wheelchair Accessible,Junior/Senior (18 months to 12 years),Parks,2016/12/31,53.520600,-113.584603,"(53.52059987097137, -113.58460340651786)",POINT (-113.58460340651786 53.52059987097137),4230,JASPER PARK
222,332,Prince Charles Playground,12033 125 Street NW,Playground,Sand,Unknown,Junior/Senior (18 months to 12 years),Parks,2007/12/31,53.574482,-113.537419,"(53.574481903921935, -113.53741925930368)",POINT (-113.53741925930368 53.574481903921935),3350,PRINCE CHARLES
495,612,Mount Pleasant Park / Pleasantview,58 Avenue - 105 Street NW,Playground,Sand,Unknown,Junior/Senior (18 months to 12 years),Parks,2005/12/12,53.495300,-113.500642,"(53.49529992238499, -113.50064216603619)",POINT (-113.50064216603619 53.49529992238499),5320,PLEASANTVIEW
790,3727,Riverview Playground,197 Street and 27 Avenue NW,Playground,Engineered Wood Fibre,Wheelchair Accessible,Junior/Senior (18 months to 12 years),Parks,2018/12/31,53.458926,-113.659726,"(53.458926164928485, -113.6597263092419)",POINT (-113.6597263092419 53.458926164928485),4464,THE UPLANDS
745,119,Argyll Park,6750 88 Street NW,Playground,Engineered Wood Fibre,Wheelchair Accessible,Senior (6 to 12 years),Parks,2017/12/31,53.505021,-113.463729,"(53.50502084964734, -113.46372935194489)",POINT (-113.46372935194489 53.50502084964734),6492,MILL CREEK RAVINE SOUTH
629,126,Donnan School (King Edward Park),7708 - 85 STREET NW T6C4K9,Playground,"Rubber Tiles, Sand",Unknown,Senior (6 to 12 years),Parks,2001/12/31,53.513514,-113.460211,"(53.513513563846566, -113.46021140202934)",POINT (-113.46021140202934 53.513513563846566),6360,KING EDWARD PARK
782,3771,McConachie District Park Playground,180 McConachie Drive NW,Playground,Engineered Wood Fibre,Wheelchair Accessible,Senior (6 to 12 years),Parks,2020/10/14,53.632752,-113.422438,"(53.632752259321194, -113.42243774248136)",POINT (-113.42243774248136 53.632752259321194),2522,MCCONACHIE
559,3637,Charlesworth,5805 - 3 Ave SW,Playground,"Engineered Wood Fibre, Pour In Place Rubber",Wheelchair Accessible,Senior (6 to 12 years),Parks,2014/12/31,53.429749,-113.431755,"(53.42974890593162, -113.43175538329422)",POINT (-113.43175538329422 53.42974890593162),6661,CHARLESWORTH
760,97,Gariepy Park Playground,17404 - 57 AVENUE NW T6M1K4,Playground,Sand,Unknown,Junior/Senior (18 months to 12 years),Parks,2003/12/31,53.493464,-113.622775,"(53.49346428469821, -113.62277492663281)",POINT (-113.62277492663281 53.49346428469821),4160,GARIEPY
5327,3785,Blatchford Playground,2703 Blatchford Road NW,Playground,Engineered Wood Fibre,Wheelchair Accessible,Junior/Senior (18 months to 12 years),Parks,2021/12/01,53.568893,-113.516978,"(53.56889334119414, -113.51697787190093)",POINT (-113.51697787190093 53.56889334119414),1111,BLATCHFORD AREA
690,43,Evansdale School/Park,9303 150 Avenue NW,Playground,Sand,Unknown,Junior/Senior (18 months to 12 years),Parks,1996/12/31,53.610317,-113.482503,"(53.610316794255645, -113.48250277106592)",POINT (-113.48250277106592 53.610316794255645),2260,EVANSDALE
24132,3820,Northeast Park Playground,903 153 Avenue NE,Playground,Engineered Wood Fibre,Unknown,Senior (6 to 12 years),Parks,,53.609326,-113.328516,"(53.609326162379574, -113.32851589625972)",POINT (-113.32851589625972 53.609326162379574),2690,RURAL NORTH EAST SOUTH STURGEON
665,297,Caernarvon B Playground,114A to 118 Street - 148 to 151 Avenue NW,Playground,Pour In Place Rubber,Unknown,Junior/Senior (18 months to 12 years),Parks,2021/11/12,53.609887,-113.520418,"(53.60988687195885, -113.52041800578375)",POINT (-113.52041800578375 53.60988687195885),3060,CAERNARVON
545,163,Earl Buxton School,250 Rhatigan Road East NW,Playground,Sand,Unknown,Junior/Senior (18 months to 12 years),Parks,1990/12/31,53.474642,-113.584134,"(53.47464160129353, -113.5841342999289)",POINT (-113.5841342999289 53.47464160129353),5350,RHATIGAN RIDGE
578,133,Ecole Frere Antoine School,2850 Mill Woods Road West NW,Playground,"Pour In Place Rubber, Sand",Unknown,Senior (6 to 12 years),Parks,2006/12/31,53.460346,-113.448982,"(53.460346202399876, -113.44898183618332)",POINT (-113.44898183618332 53.460346202399876),6750,TIPASKAN
596,123,Bonnie Doon Park,9263 94 Street NW,Playground,Pour In Place Rubber,Wheelchair Accessible,Junior (18 months to 5 years),Parks,2011/12/31,53.527388,-113.470866,"(53.5273875440697, -113.4708657916566)",POINT (-113.4708657916566 53.5273875440697),6040,BONNIE DOON
879,107,Wedgewood Heights Park Playground,Wedgewood Boulevard NW,Playground,"Pour In Place Rubber, Sand",Wheelchair Accessible,Junior/Senior (18 months to 12 years),Parks,2013/12/31,53.480512,-113.646571,"(53.480511712883015, -113.64657078437286)",POINT (-113.64657078437286 53.480511712883015),4570,WEDGEWOOD HEIGHTS
693,35,Bannerman Park,23 Street - 140 Avenue,Playground,Sand,Unknown,Junior/Senior (18 months to 12 years),Parks,1995/12/31,53.604008,-113.378583,"(53.60400846891946, -113.37858328863818)",POINT (-113.37858328863818 53.60400846891946),2030,BANNERMAN
903,1926,Terrace Heights Park,6702 - 101A AVENUE NW,Playground,"Pour In Place Rubber, Sand",Unknown,Junior/Senior (18 months to 12 years),Parks,2007/12/31,53.543605,-113.433998,"(53.54360474455878, -113.43399827014886)",POINT (-113.43399827014886 53.54360474455878),6620,RIVER VALLEY GOLD BAR
653,3580,Elsinore Chambery Park Playground,"176 Avenue, Between 104-107 Street",Playground,Sand,Unknown,Junior/Senior (18 months to 12 years),Parks,2009/12/31,53.641026,-113.505985,"(53.641025929209405, -113.50598481072078)",POINT (-113.50598481072078 53.641025929209405),3190,ELSINORE
713,157,Capilano School,10720 54 Street NW,Playground,"Pour In Place Rubber, Sand",Wheelchair Accessible,Junior/Senior (18 months to 12 years),Parks,2014/12/31,53.555628,-113.422376,"(53.5556276423451, -113.42237599101216)",POINT (-113.42237599101216 53.5556276423451),6061,CAPILANO
253,2520,McQueen Playground,10825 McQueen Road NW,Playground,Sand,Unknown,Junior/Senior (18 months to 12 years),Parks,2006/12/31,53.555655,-113.570877,"(53.55565465284029, -113.57087721747035)",POINT (-113.57087721747035 53.55565465284029),3300,MCQUEEN
221,609,McKee School,10725 51 Avenue NW,Playground,Sand,Unknown,Junior/Senior (18 months to 12 years),Parks,2002/12/31,53.487361,-113.509905,"(53.48736066959121, -113.50990545959999)",POINT (-113.50990545959999 53.48736066959121),5170,EMPIRE PARK
215,3463,Jackie Parker Park,50 Street - 44 Avenue NW,Playground,Engineered Wood Fibre,Wheelchair Accessible,Junior (18 months to 5 years),Parks,2009/12/31,53.484398,-113.424438,"(53.48439759687011, -113.42443828482294)",POINT (-113.42443828482294 53.48439759687011),6500,MILL WOODS GOLF COURSE
251,593,Lansdowne Park,4915 - 124 STREET NW,Playground,Sand,Unknown,Junior/Senior (18 months to 12 years),Parks,1999/12/31,53.486944,-113.545922,"(53.486944185975716, -113.54592234521508)",POINT (-113.54592234521508 53.486944185975716),5260,LANSDOWNE
733,154,Fulton Place School,10310 56 Street NW,Playground,Sand,Unknown,Junior/Senior (18 months to 12 years),Parks,1996/12/31,53.545304,-113.425170,"(53.54530391328112, -113.42517012737275)",POINT (-113.42517012737275 53.54530391328112),6240,FULTON PLACE
522,104,Bishop Savaryn School Playground,16215 109 Street NW,Playground,Sand,Unknown,Junior/Senior (18 months to 12 years),Parks,1994/12/31,53.621640,-113.507023,"(53.62164000362452, -113.50702259211943)",POINT (-113.50702259211943 53.62164000362452),3280,LORELEI
321,62,Kilkenny Park/CL Barnett School,7245 149A Avenue NW,Playground,Sand,Unknown,Junior/Senior (18 months to 12 years),Parks,1999/12/31,53.610506,-113.451214,"(53.610506092715354, -113.45121370388819)",POINT (-113.45121370388819 53.610506092715354),2410,KILKENNY
707,2020,Beaumaris Park Playground,100 Street - 156 Avenue NW,Playground,Sand,Unknown,Junior/Senior (18 months to 12 years),Parks,2003/12/31,53.616714,-113.498020,"(53.61671402097572, -113.49801952480658)",POINT (-113.49801952480658 53.61671402097572),3040,BEAUMARIS
581,1762,Ecole Gabrielle-Roy,9330 - 87 STREET NW T6C4M5,Playground,"Pour In Place Rubber, Sand",Wheelchair Accessible,Junior/Senior (18 months to 12 years),Parks,2015/12/31,53.530037,-113.461992,"(53.5300369712604, -113.46199245490436)",POINT (-113.46199245490436 53.5300369712604),6710,STRATHEARN
601,3678,Cy Becker Urban Village Park,270 Cy Becker Boulevard NW,Playground,Pour In Place Rubber,Wheelchair Accessible,Junior/Senior (18 months to 12 years),Parks,2015/12/31,53.634076,-113.407785,"(53.63407630391181, -113.40778486753338)",POINT (-113.40778486753338 53.63407630391181),2611,CY BECKER
493,3736,Kim Hung School Playground,1950 Glastonbury Blvd NW,Playground,Engineered Wood Fibre,Wheelchair Accessible,Junior/Senior (18 months to 12 years),Parks,2020/09/30,53.501678,-113.683095,"(53.501677625642245, -113.68309458096019)",POINT (-113.68309458096019 53.501677625642245),4551,GRANVILLE
587,603,Blue Quill Community,11304 - 25 AVENUE NW T6J5B1,Playground,Sand,Unknown,Junior/Senior (18 months to 12 years),Parks,1983/12/31,53.458113,-113.524675,"(53.45811328819084, -113.52467469993064)",POINT (-113.52467469993064 53.45811328819084),5060,BLUE QUILL
607,983,Ellerslie Crossing,Edwards Drive - 5 Avenue SW,Playground,"Pour In Place Rubber, Sand",Wheelchair Accessible,Junior/Senior (18 months to 12 years),Parks,2009/12/31,53.429098,-113.458841,"(53.4290975496791, -113.4588411071399)",POINT (-113.4588411071399 53.4290975496791),6211,ELLERSLIE
823,1781,"W.C. ""Tubby"" Bateman Park",9703 88 Avenue NW,Playground,Sand,Unknown,Junior (18 months to 5 years),Parks,2002/12/31,53.523184,-113.480119,"(53.52318374655882, -113.48011914558475)",POINT (-113.48011914558475 53.52318374655882),5480,STRATHCONA
919,152,Tipaskan School,1200 Lakewood Road West NW,Playground,Sand,Unknown,Junior (18 months to 5 years),Parks,1983/12/31,53.462697,-113.459871,"(53.46269685118332, -113.45987089528418)",POINT (-113.45987089528418 53.46269685118332),6750,TIPASKAN
475,3665,Rutherford Park (Fee Otterson School),1834 Rutherford Rd,Playground,Pour In Place Rubber,Wheelchair Accessible,Junior/Senior (18 months to 12 years),Parks,2005/12/31,53.417258,-113.520877,"(53.417258325299315, -113.52087702177846)",POINT (-113.52087702177846 53.417258325299315),5454,RUTHERFORD
873,3682,Webber Greens Playground,855 Lewis Greens Drive NW,Playground,"Engineered Wood Fibre, Pour In Place Rubber",Wheelchair Accessible,Junior/Senior (18 months to 12 years),Parks,2018/12/31,53.528992,-113.679939,"(53.52899160312473, -113.67993880330022)",POINT (-113.67993880330022 53.52899160312473),4740,WEBBER GREENS
606,1663,Delton Tot Lot,12332 95 Street NW,Playground,Sand,Unknown,Junior/Senior (18 months to 12 years),Parks,1976/12/31,53.579507,-113.489267,"(53.57950721217736, -113.48926691551051)",POINT (-113.48926691551051 53.57950721217736),1080,DELTON
233,381,Lago Lindo,17221 95 Street NW,Playground,Sand,Unknown,Junior/Senior (18 months to 12 years),Parks,2000/12/31,53.634615,-113.487322,"(53.634615324391746, -113.48732192237182)",POINT (-113.48732192237182 53.634615324391746),2450,LAGO LINDO
410,3664,South Terwillegar Park,7170 South Terwillegar Dr,Playground,"Pour In Place Rubber, Sand",Wheelchair Accessible,Junior/Senior (18 months to 12 years),Parks,2011/12/31,53.439780,-113.579959,"(53.43978000140589, -113.57995863374447)",POINT (-113.57995863374447 53.43978000140589),5642,SOUTH TERWILLEGAR
696,3645,Cameron Heights Park Playground,3250 Cameron Heights Way NW,Playground,Sand,Unknown,Junior/Senior (18 months to 12 years),Parks,2015/12/31,53.473222,-113.636161,"(53.473221970422514, -113.63616145582031)",POINT (-113.63616145582031 53.473221970422514),4466,CAMERON HEIGHTS
890,1767,Westmount Back Alley Park Playground,10718 - 130 STREET NW T5M0Y9,Playground,Sand,Unknown,Senior (6 to 12 years),Parks,1996/12/31,53.552239,-113.547349,"(53.55223906223426, -113.54734907889024)",POINT (-113.54734907889024 53.55223906223426),3440,WESTMOUNT
196,268,Parkview Community Playground,9135 146 Street NW,Playground,"Pour In Place Rubber, Sand",Wheelchair Accessible,Junior/Senior (18 months to 12 years),Parks,2007/12/31,53.525199,-113.569790,"(53.52519904373429, -113.56979032411304)",POINT (-113.56979032411304 53.52519904373429),3330,PARKVIEW
773,3736,Kim Hung School Playground,1950 Glastonbury Blvd NW,Playground,Sand,Unknown,Junior (18 months to 5 years),Parks,2020/09/30,53.501618,-113.682754,"(53.50161839581791, -113.68275442788963)",POINT (-113.68275442788963 53.50161839581791),4551,GRANVILLE
566,45,Eastwood School,12023 81 Street NW,Playground,Sand,Unknown,Junior/Senior (18 months to 12 years),Parks,1999/12/31,53.574918,-113.464971,"(53.57491764682398, -113.46497060154621)",POINT (-113.46497060154621 53.57491764682398),1100,EASTWOOD
195,1678,Mayliewan Park,7503 161A Avenue NW,Playground,Engineered Wood Fibre,Wheelchair Accessible,Senior (6 to 12 years),Parks,2005/12/31,53.621923,-113.459065,"(53.62192275314678, -113.45906499362118)",POINT (-113.45906499362118 53.62192275314678),2511,MAYLIEWAN
729,3564,Ambleside Park,181 Ambleside Drive SW,Playground,Engineered Wood Fibre,Wheelchair Accessible,Junior/Senior (18 months to 12 years),Parks,2007/12/31,53.433090,-113.603281,"(53.43309037679937, -113.60328098021672)",POINT (-113.60328098021672 53.43309037679937),5505,AMBLESIDE
922,319,Tipton Park,10849 81 Avenue NW,Playground,Sand,Unknown,Junior/Senior (18 months to 12 years),Parks,1950/12/31,53.516520,-113.509799,"(53.51652014018566, -113.50979872346238)",POINT (-113.50979872346238 53.51652014018566),5330,QUEEN ALEXANDRA
11727,3797,Edgemont Natural Playground,5210 Edgemont Boulevard NW,Playground,Engineered Wood Fibre,Wheelchair Accessible,Junior/Senior (18 months to 12 years),Parks,2021/11/29,53.468088,-113.679861,"(53.46808782503692, -113.67986054497243)",POINT (-113.67986054497243 53.46808782503692),4462,EDGEMONT
906,335,Westwood Community,10429 122 Avenue NW,Playground,Sand,Unknown,Junior/Senior (18 months to 12 years),Parks,1989/12/31,53.576189,-113.499762,"(53.57618878330386, -113.49976172757883)",POINT (-113.49976172757883 53.57618878330386),1250,WESTWOOD
687,102,Aldergrove School Playground,8535 182 Street NW,Playground,"Pour In Place Rubber, Sand",Wheelchair Accessible,Junior/Senior (18 months to 12 years),Parks,2010/12/31,53.518766,-113.634849,"(53.51876575966773, -113.63484922751847)",POINT (-113.63484922751847 53.51876575966773),4020,ALDERGROVE
548,50,Giovanni Caboto,9403 109A Avenue NW,Playground,Engineered Wood Fibre,Wheelchair Accessible,Junior (18 months to 5 years),Parks,2005/12/31,53.556286,-113.484092,"(53.556286063883206, -113.48409174140572)",POINT (-113.48409174140572 53.556286063883206),1140,MCCAULEY
350,481,Henderson Park,3408 Henderson Street NW,Playground,"Pour In Place Rubber, Sand",Wheelchair Accessible,Junior/Senior (18 months to 12 years),Parks,2007/12/31,53.468768,-113.598091,"(53.46876807456964, -113.59809064177769)",POINT (-113.59809064177769 53.46876807456964),5230,HENDERSON ESTATES
927,3772,McConachie Natural Playground,980 - McConachie Boulevard NW,Playground,Engineered Wood Fibre,Wheelchair Accessible,All Ages,Parks,2020/10/08,53.633842,-113.435742,"(53.63384158024262, -113.4357424980475)",POINT (-113.4357424980475 53.63384158024262),2522,MCCONACHIE
569,290,Glenora Community Playground,10426 136 Street NW,Playground,"Pour In Place Rubber, Sand",Wheelchair Accessible,Junior/Senior (18 months to 12 years),Parks,2010/12/31,53.546474,-113.556934,"(53.54647369703842, -113.55693428655759)",POINT (-113.55693428655759 53.54647369703842),3200,GLENORA
326,103,Lorelei Playground,16220 103 Street NW,Playground,Sand,Unknown,Junior/Senior (18 months to 12 years),Parks,1994/12/31,53.623305,-113.501591,"(53.62330548175714, -113.50159070820993)",POINT (-113.50159070820993 53.62330548175714),3280,LORELEI
731,48,Fraser School/Park,14904 21 Street NW,Playground,Sand,Unknown,Junior/Senior (18 months to 12 years),Parks,2019/12/31,53.610714,-113.372816,"(53.6107141480075, -113.37281588893552)",POINT (-113.37281588893552 53.6107141480075),2280,FRASER
18531,3813,Sir Wilfrid Laurier Natural Playground Sandbox,13221 Buena Vista Road,Playground,Sand,Unknown,Unknown,Parks,2023/11/23,53.509466,-113.553193,"(53.50946607683805, -113.55319343791132)",POINT (-113.55319343791132 53.50946607683805),3382,RIVER VALLEY LAURIER
612,390,Borden Park,7405 - 112 Avenue NW,Playground,Engineered Wood Fibre,Wheelchair Accessible,Unknown,Parks,2012/12/31,53.561888,-113.453720,"(53.56188765337235, -113.45372040917101)",POINT (-113.45372040917101 53.56188765337235),1240,VIRGINIA PARK
504,393,St. Bernadette School,11917 40 Street NW,Playground,Sand,Unknown,Junior/Senior (18 months to 12 years),Parks,1997/12/31,53.572281,-113.402547,"(53.572280739779565, -113.40254680612591)",POINT (-113.40254680612591 53.572280739779565),2040,BEACON HEIGHTS
878,3682,Webber Greens Playground,855 Lewis Greens Drive NW,Playground,Engineered Wood Fibre,Wheelchair Accessible,Junior/Senior (18 months to 12 years),Parks,2018/12/31,53.529022,-113.679848,"(53.52902158833807, -113.67984835788727)",POINT (-113.67984835788727 53.52902158833807),4740,WEBBER GREENS
896,602,Sweetgrass School,11351 31 Avenue NW,Playground,Sand,Unknown,Junior/Senior (18 months to 12 years),Parks,1998/12/31,53.462829,-113.529244,"(53.462829183659494, -113.52924361635067)",POINT (-113.52924361635067 53.462829183659494),5490,SWEET GRASS
166,40,Matt Berry,59A Street - 159 A Avenue,Playground,Sand,Unknown,Junior/Senior (18 months to 12 years),Parks,1995/12/31,53.621795,-113.431355,"(53.62179544256159, -113.43135468658969)",POINT (-113.43135468658969 53.62179544256159),2500,MATT BERRY
214,3463,Jackie Parker Park,50 Street - 44 Avenue NW,Playground,Engineered Wood Fibre,Wheelchair Accessible,Junior/Senior (18 months to 12 years),Parks,2009/12/31,53.484296,-113.422961,"(53.484296083199, -113.42296086865312)",POINT (-113.42296086865312 53.484296083199),6500,MILL WOODS GOLF COURSE
793,3763,Woodhaven Edgemont Playground,1405 Enright Landing NW,Playground,"Engineered Wood Fibre, Pour In Place Rubber",Wheelchair Accessible,Junior/Senior (18 months to 12 years),Parks,2020/10/31,53.465155,-113.669417,"(53.46515507816205, -113.66941673835484)",POINT (-113.66941673835484 53.46515507816205),4462,EDGEMONT
425,421,Riverdale School,8901 101 Avenue NW,Playground,"Pour In Place Rubber, Sand",Wheelchair Accessible,Junior/Senior (18 months to 12 years),Parks,2002/12/31,53.543389,-113.467795,"(53.54338915200691, -113.46779531590582)",POINT (-113.46779531590582 53.54338915200691),1210,RIVERDALE
335,63,Hairsine Community League,3120 139 Avenue NW,Playground,Sand,Unknown,Junior/Senior (18 months to 12 years),Parks,1994/12/31,53.603507,-113.390259,"(53.60350732975466, -113.39025912254442)",POINT (-113.39025912254442 53.60350732975466),2320,HAIRSINE
892,94,Westmount Community Playground,10970 127 Street NW,Playground,Sand,Unknown,Junior/Senior (18 months to 12 years),Parks,1995/12/31,53.555997,-113.541712,"(53.55599727865375, -113.54171219870872)",POINT (-113.54171219870872 53.55599727865375),3440,WESTMOUNT
755,3675,Bessie Nichols School Playground,189 Hemingway Road NW,Playground,Pour In Place Rubber,Wheelchair Accessible,Junior/Senior (18 months to 12 years),Parks,2016/12/31,53.486563,-113.672238,"(53.486563016242606, -113.67223789471848)",POINT (-113.67223789471848 53.486563016242606),4461,THE HAMPTONS
683,1765,Albert G. Nickel Park Playground,13539 139 Street NW,Playground,Pour In Place Rubber,Unknown,Junior/Senior (18 months to 12 years),Parks,1997/12/31,53.596808,-113.559910,"(53.596807864151785, -113.55991031091489)",POINT (-113.55991031091489 53.596807864151785),3430,WELLINGTON
723,304,Belgravia Park Playground,11540 73 Avenue NW,Playground,"Pour In Place Rubber, Sand",Wheelchair Accessible,Junior/Senior (18 months to 12 years),Parks,2008/12/31,53.509573,-113.531004,"(53.5095730808084, -113.53100351371984)",POINT (-113.53100351371984 53.5095730808084),5040,BELGRAVIA
400,3668,Sister Annata Brockman Playground,365 Hemingway Rd NW,Playground,Pour In Place Rubber,Wheelchair Accessible,Junior/Senior (18 months to 12 years),Parks,2015/12/31,53.489995,-113.683542,"(53.489994910597105, -113.68354199269943)",POINT (-113.68354199269943 53.489994910597105),4461,THE HAMPTONS
709,1645,Beacon Heights Park Tot Lot,3424 119 A Avenue NW,Playground,Sand,Unknown,Senior (6 to 12 years),Parks,1960/12/31,53.572901,-113.395949,"(53.57290083398193, -113.39594929849248)",POINT (-113.39594929849248 53.57290083398193),2040,BEACON HEIGHTS
857,3654,Rosenthal Playground,1070 Rosenthal Blvd NW,Playground,Engineered Wood Fibre,Wheelchair Accessible,Junior/Senior (18 months to 12 years),Parks,2015/12/31,53.517375,-113.699160,"(53.517375201960775, -113.6991602810374)",POINT (-113.6991602810374 53.517375201960775),4750,ROSENTHAL
594,134,Grace Martin School,8210 36 Avenue NW,Playground,Engineered Wood Fibre,Wheelchair Accessible,Junior/Senior (18 months to 12 years),Parks,2003/12/31,53.469179,-113.455243,"(53.469178630395035, -113.45524282796836)",POINT (-113.45524282796836 53.469178630395035),6600,RICHFIELD
643,3369,Brightview School Playground,15425 106 Avenue NW,Playground,Engineered Wood Fibre,Wheelchair Accessible,Junior/Senior (18 months to 12 years),Parks,2005/12/31,53.548723,-113.587661,"(53.548723361181054, -113.58766054680743)",POINT (-113.58766054680743 53.548723361181054),4090,CANORA
675,120,Avonmore Community League,7340 78 Street NW,Playground,Sand,Wheelchair Accessible,Junior/Senior (18 months to 12 years),Parks,2013/12/31,53.510211,-113.448152,"(53.51021077249181, -113.4481519234364)",POINT (-113.4481519234364 53.51021077249181),6020,AVONMORE
780,1673,Dermott Playground,8610 81 Street NW,Playground,Engineered Wood Fibre,Unknown,Senior (6 to 12 years),Parks,2020/11/05,53.523089,-113.453746,"(53.5230888403893, -113.45374592016239)",POINT (-113.45374592016239 53.5230888403893),6320,IDYLWYLDE
682,3645,Cameron Heights Park Playground,3250 Cameron Heights Way NW,Playground,Pour In Place Rubber,Wheelchair Accessible,Junior/Senior (18 months to 12 years),Parks,2015/12/31,53.473261,-113.636331,"(53.473260793720186, -113.63633064534335)",POINT (-113.63633064534335 53.473260793720186),4466,CAMERON HEIGHTS
592,983,Ellerslie Crossing,Edwards Drive - 5 Avenue SW,Playground,Pour In Place Rubber,Wheelchair Accessible,Senior (6 to 12 years),Parks,2009/12/31,53.428956,-113.458462,"(53.428956063691814, -113.45846213575975)",POINT (-113.45846213575975 53.428956063691814),6211,ELLERSLIE
207,1678,Mayliewan Park,7503 161A Avenue NW,Playground,Engineered Wood Fibre,Wheelchair Accessible,Senior (6 to 12 years),Parks,2005/12/31,53.621984,-113.459309,"(53.62198379255174, -113.45930897136407)",POINT (-113.45930897136407 53.62198379255174),2511,MAYLIEWAN
322,62,Kilkenny Park/CL Barnett School,7245 149A Avenue NW,Playground,Ground,Unknown,Junior/Senior (18 months to 12 years),Parks,1999/12/31,53.610028,-113.450691,"(53.61002841694469, -113.45069145518318)",POINT (-113.45069145518318 53.61002841694469),2410,KILKENNY
369,3602,Magrath Heights,MaGrath Rd. & MaGrath BLVD.,Playground,Engineered Wood Fibre,Wheelchair Accessible,Junior/Senior (18 months to 12 years),Parks,2012/12/31,53.449490,-113.559437,"(53.44948973485799, -113.55943738279305)",POINT (-113.55943738279305 53.44948973485799),5476,MAGRATH HEIGHTS
298,101,Laurier Heights School Playground,8210 142 Street NW,Playground,Sand,Unknown,Junior/Senior (18 months to 12 years),Parks,1995/12/31,53.516747,-113.567233,"(53.51674726626483, -113.56723254635997)",POINT (-113.56723254635997 53.51674726626483),3270,LAURIER HEIGHTS
727,157,Capilano School,10720 54 Street NW,Playground,Pour In Place Rubber,Wheelchair Accessible,Junior (18 months to 5 years),Parks,2014/12/31,53.555854,-113.422243,"(53.55585383096448, -113.42224319558338)",POINT (-113.42224319558338 53.55585383096448),6061,CAPILANO
543,588,Charles Simmonds Park,7830 115 Street NW,Playground,Sand,Unknown,Junior/Senior (18 months to 12 years),Parks,1977/12/31,53.515530,-113.531004,"(53.51553048875908, -113.53100402521845)",POINT (-113.53100402521845 53.51553048875908),5290,MCKERNAN
789,3731,Laurel Special Playground,1732 25 Street NW,Playground,Engineered Wood Fibre,Wheelchair Accessible,Senior (6 to 12 years),Parks,2019/12/31,53.447939,-113.377488,"(53.44793852901497, -113.377487786735)",POINT (-113.377487786735 53.44793852901497),6444,LAUREL
276,317,Keheewin School,1410 105 Street NW,Playground,Sand,Unknown,Junior/Senior (18 months to 12 years),Parks,2002/12/31,53.448429,-113.502748,"(53.44842861079293, -113.50274812516025)",POINT (-113.50274812516025 53.44842861079293),5250,KEHEEWIN
554,3283,Blackmud Park,Blackmud Creek - Baker Close,Playground,Engineered Wood Fibre,Wheelchair Accessible,Junior/Senior (18 months to 12 years),Parks,2010/12/31,53.420203,-113.513118,"(53.42020255839918, -113.51311811302092)",POINT (-113.51311811302092 53.42020255839918),5453,BLACKMUD CREEK
238,589,McKernan Park,7535 112 Street NW,Playground,Sand,Unknown,Junior/Senior (18 months to 12 years),Parks,1989/12/31,53.511050,-113.518917,"(53.511050263833184, -113.51891737673472)",POINT (-113.51891737673472 53.511050263833184),5290,MCKERNAN
390,140,Holyrood School,82 Street - 94 Avenue NW,Playground,"Pour In Place Rubber, Sand",Wheelchair Accessible,Junior/Senior (18 months to 12 years),Parks,1992/12/31,53.531027,-113.450887,"(53.531027050222185, -113.45088669768303)",POINT (-113.45088669768303 53.531027050222185),6310,HOLYROOD
439,1901,Rossdale,10135 96 Avenue NW,Playground,"Pour In Place Rubber, Sand",Wheelchair Accessible,Junior/Senior (18 months to 12 years),Parks,2011/12/31,53.530620,-113.491470,"(53.530620150504745, -113.49147034054562)",POINT (-113.49147034054562 53.530620150504745),1220,ROSSDALE
255,68,Meadowlark Community Playground,15961 92 Avenue NW,Playground,"Engineered Wood Fibre, Pour In Place Rubber",Wheelchair Accessible,Junior/Senior (18 months to 12 years),Parks,2017/12/31,53.525405,-113.596803,"(53.52540456846987, -113.59680268051092)",POINT (-113.59680268051092 53.52540456846987),4310,MEADOWLARK PARK
243,1922,Richfield Tot Lot,8210 36 Avenue NW,Playground,Sand,Unknown,Junior (18 months to 5 years),Parks,1987/12/31,53.472925,-113.457602,"(53.47292547995235, -113.45760185767094)",POINT (-113.45760185767094 53.47292547995235),6600,RICHFIELD
181,2820,Oxford Park Playground,13104 155 Avenue NW,Playground,Sand,Unknown,Junior/Senior (18 months to 12 years),Parks,2006/12/31,53.618009,-113.547909,"(53.61800865234694, -113.5479086735967)",POINT (-113.5479086735967 53.61800865234694),3320,OXFORD
302,146,Michaels Park,980 Millbourne Road East NW,Playground,Sand,Unknown,Junior/Senior (18 months to 12 years),Parks,1995/12/31,53.479571,-113.448022,"(53.47957061871701, -113.44802198656282)",POINT (-113.44802198656282 53.47957061871701),6480,MICHAELS PARK
599,123,Bonnie Doon Park,9263 94 Street NW,Playground,Engineered Wood Fibre,Wheelchair Accessible,Senior (6 to 12 years),Parks,2011/12/31,53.527468,-113.470506,"(53.52746835258371, -113.47050625697835)",POINT (-113.47050625697835 53.52746835258371),6040,BONNIE DOON
717,3564,Ambleside Park,181 Ambleside Drive SW,Playground,Engineered Wood Fibre,Wheelchair Accessible,Junior/Senior (18 months to 12 years),Parks,2007/12/31,53.432774,-113.603405,"(53.43277408341012, -113.60340473478851)",POINT (-113.60340473478851 53.43277408341012),5505,AMBLESIDE
239,777,Queen Mary Park,10844 117 STREET NW T5H3N5,Playground,"Engineered Wood Fibre, Pour In Place Rubber, Sand",Wheelchair Accessible,Junior/Senior (18 months to 12 years),Parks,2006/12/31,53.554158,-113.524549,"(53.55415822059051, -113.52454852404477)",POINT (-113.52454852404477 53.55415822059051),1180,QUEEN MARY PARK
877,3606,Suder Greens Park Playground,290 - SUDER GREENS DRIVE NW,Playground,Engineered Wood Fibre,Wheelchair Accessible,Junior/Senior (18 months to 12 years),Parks,2011/12/31,53.521124,-113.684536,"(53.52112438311883, -113.68453609465236)",POINT (-113.68453609465236 53.52112438311883),4730,SUDER GREENS
4528,3784,Jan Reimer School Playground,360 Orchards Boulevard SW,Playground,"Engineered Wood Fibre, Pour In Place Rubber",Wheelchair Accessible,Junior/Senior (18 months to 12 years),Parks,2021/11/08,53.406458,-113.452239,"(53.40645787632705, -113.4522391489431)",POINT (-113.4522391489431 53.40645787632705),6216,THE ORCHARDS AT ELLERSLIE
776,3342,Silver Berry Park,29 Street NW and Silver Berry Road NW,Playground,"Pour In Place Rubber, Sand",Wheelchair Accessible,Junior/Senior (18 months to 12 years),Parks,2008/12/31,53.457423,-113.384250,"(53.4574231484894, -113.384249560646)",POINT (-113.384249560646 53.4574231484894),6442,SILVER BERRY
1327,3775,Kinistinaw Park Rubber Play Area,10245 96 Street NW,Playground,Pour In Place Rubber,Wheelchair Accessible,All Ages,Parks,2020/10/08,53.546300,-113.482999,"(53.54630041497889, -113.48299894811919)",POINT (-113.48299894811919 53.54630041497889),1020,BOYLE STREET
247,2641,Jackson Heights,1011 Jackson Road NW,Playground,Engineered Wood Fibre,Wheelchair Accessible,Junior/Senior (18 months to 12 years),Parks,2004/12/31,53.483259,-113.407674,"(53.48325875546793, -113.40767419607408)",POINT (-113.40767419607408 53.48325875546793),6330,JACKSON HEIGHTS
541,588,Charles Simmonds Park,7830 115 Street NW,Playground,Sand,Unknown,Junior/Senior (18 months to 12 years),Parks,1977/12/31,53.515649,-113.530959,"(53.51564920890304, -113.53095860653227)",POINT (-113.53095860653227 53.51564920890304),5290,MCKERNAN
184,3663,Paisley Park,3051 Paisley Green SW,Playground,Engineered Wood Fibre,Wheelchair Accessible,Junior/Senior (18 months to 12 years),Parks,2015/12/31,53.414424,-113.559604,"(53.41442415801815, -113.55960371943277)",POINT (-113.55960371943277 53.41442415801815),5469,PAISLEY
715,3564,Ambleside Park,181 Ambleside Drive SW,Playground,Engineered Wood Fibre,Wheelchair Accessible,Junior/Senior (18 months to 12 years),Parks,2007/12/31,53.432768,-113.602985,"(53.43276796624467, -113.60298477386311)",POINT (-113.60298477386311 53.43276796624467),5505,AMBLESIDE
460,2181,Rundle Park,2909 113 Avenue NW,Playground,Pour In Place Rubber,Wheelchair Accessible,Unknown,Parks,2005/12/31,53.555037,-113.386828,"(53.55503679771041, -113.38682784729727)",POINT (-113.38682784729727 53.55503679771041),2650,RIVER VALLEY RUNDLE
756,2180,Beverly Heights Lions,4201 115 Avenue NW,Playground,Sand,Unknown,Junior/Senior (18 months to 12 years),Parks,1964/12/31,53.567377,-113.407026,"(53.567376857346346, -113.40702636137925)",POINT (-113.40702636137925 53.567376857346346),2100,BEVERLY HEIGHTS
177,309,Kinsmen Park Senior,9100 Walterdale Hill NW,Playground,Engineered Wood Fibre,Wheelchair Accessible,Junior/Senior (18 months to 12 years),Parks,2013/12/31,53.527247,-113.508946,"(53.527246702874336, -113.50894646843938)",POINT (-113.50894646843938 53.527246702874336),5390,RIVER VALLEY WALTERDALE
907,587,William Hawrelak Park Playground,9330 Groat Road,Playground,"Engineered Wood Fibre, Sand",Wheelchair Accessible,Junior/Senior (18 months to 12 years),Parks,1973/12/31,53.526942,-113.544246,"(53.526942195523745, -113.54424648735207)",POINT (-113.54424648735207 53.526942195523745),5370,RIVER VALLEY MAYFAIR
179,1678,Mayliewan Park,7503 161A Avenue NW,Playground,Sand,Unknown,Junior (18 months to 5 years),Parks,2005/12/31,53.622234,-113.458974,"(53.62223368311331, -113.45897433793003)",POINT (-113.45897433793003 53.62223368311331),2511,MAYLIEWAN
536,121,Bisset School,3024 37 Street NW,Playground,Pour In Place Rubber,Wheelchair Accessible,Senior (6 to 12 years),Parks,2017/12/31,53.461750,-113.399220,"(53.46174963450494, -113.39921976968748)",POINT (-113.39921976968748 53.46174963450494),6030,BISSET
486,3689,Schonsee,5470 Schonsee Drive NW,Playground,Pour In Place Rubber,Wheelchair Accessible,Junior/Senior (18 months to 12 years),Parks,2017/12/31,53.633097,-113.459278,"(53.63309720559653, -113.4592776380058)",POINT (-113.4592776380058 53.63309720559653),2700,SCHONSEE
311,1944,Sir Wilfrid Laurier Natural Playground,13221 Buena Vista Road,Playground,Engineered Wood Fibre,Wheelchair Accessible,Junior/Senior (18 months to 12 years),Parks,2020/01/01,53.509994,-113.549801,"(53.509994187354835, -113.54980145289582)",POINT (-113.54980145289582 53.509994187354835),3382,RIVER VALLEY LAURIER
895,602,Sweetgrass School,11351 31 Avenue NW,Playground,"Pour In Place Rubber, Sand",Unknown,Junior/Senior (18 months to 12 years),Parks,1998/12/31,53.462994,-113.529141,"(53.46299434720646, -113.52914067767071)",POINT (-113.52914067767071 53.46299434720646),5490,SWEET GRASS
333,1900,Mount Royal,11303 55 Street NW,Playground,Sand,Unknown,Junior/Senior (18 months to 12 years),Parks,1965/12/31,53.567510,-113.424439,"(53.56750967765734, -113.42443947391445)",POINT (-113.42443947391445 53.56750967765734),2330,HIGHLANDS
279,3343,Laurel Park,21 Avenue - 33 Street NW,Playground,Engineered Wood Fibre,Wheelchair Accessible,Junior (18 months to 5 years),Parks,2008/12/31,53.451418,-113.390074,"(53.45141772674436, -113.39007360948005)",POINT (-113.39007360948005 53.45141772674436),6444,LAUREL
583,135,Ekota School,1395 Knotwood Road East NW,Playground,Sand,Unknown,Senior (6 to 12 years),Parks,1997/12/31,53.450005,-113.442340,"(53.450005050815705, -113.44233980250331)",POINT (-113.44233980250331 53.450005050815705),6200,EKOTA
766,1780,Kittlitz Park (Wild Rose),2850 36A Avenue NW,Playground,"Engineered Wood Fibre, Pour In Place Rubber",Wheelchair Accessible,Junior/Senior (18 months to 12 years),Parks,2022/08/11,53.469897,-113.385135,"(53.46989682400542, -113.38513532706298)",POINT (-113.38513532706298 53.46989682400542),6790,WILD ROSE
278,3671,Laurel 8,1410 32 Street NW,Playground,Engineered Wood Fibre,Wheelchair Accessible,Senior (6 to 12 years),Parks,2014/12/31,53.441298,-113.388178,"(53.441297854978544, -113.38817770460385)",POINT (-113.38817770460385 53.441297854978544),6444,LAUREL
12527,1673,Dermott Playground,8610 81 Street NW,Playground,Sand,Wheelchair Accessible,All Ages,Parks,2019/10/03,53.523109,-113.453383,"(53.52310908820051, -113.45338274031883)",POINT (-113.45338274031883 53.52310908820051),6320,IDYLWYLDE
